id,country,station_name,data_source,lat,lon,http_link,host,strong_cold_stress,moderate_cold_stress,slight_cold_stress,no_thermal_stress,slight_heat_stress,moderate_heat_stress,strong_heat_stress
637200,KEN,Embu,SWERA,-0.5,37.45,/WMO_Region_1_Africa/KEN_Kenya/Embu/KEN_Embu_Embu.637200_SWERA.zip,onebuilding,0,3,59,8689,9,0,0
637230,KEN,Garissa,SWERA,-0.47,39.63,/WMO_Region_1_Africa/KEN_Kenya/Garissa/KEN_Garissa_Garissa.637230_SWERA.zip,onebuilding,0,0,0,3800,1633,2031,1296
636870,KEN,Kakamega,SWERA,0.28,34.78,/WMO_Region_1_Africa/KEN_Kenya/Kakamega/KEN_Kakamega_Kakamega.636870_SWERA.zip,onebuilding,3,13,24,8549,149,22,0
637990,KEN,Malindi,SWERA,-3.23,40.1,/WMO_Region_1_Africa/KEN_Kenya/Kilifi/KEN_Kilifi_Malindi.637990_SWERA.zip,onebuilding,0,0,5,5090,2093,1521,51
637090,KEN,Kisii,SWERA,-0.67,34.78,/WMO_Region_1_Africa/KEN_Kenya/Kisii/KEN_Kisii_Kisii.637090_SWERA.zip,onebuilding,0,69,811,7835,38,6,1
637080,KEN,Kisumu,SWERA,-0.1,34.75,/WMO_Region_1_Africa/KEN_Kenya/Kisumu/KEN_Kisumu_Kisumu.637080_SWERA.zip,onebuilding,0,0,8,8122,479,150,1
637720,KEN,Lamu_Manda_Island,SWERA,-2.27,40.83,/WMO_Region_1_Africa/KEN_Kenya/Lamu/KEN_Lamu_Lamu-Manda.Island.637720_SWERA.zip,onebuilding,0,0,0,3922,1988,2659,191
637660,KEN,Makindu,SWERA,-2.28,37.83,/WMO_Region_1_Africa/KEN_Kenya/Makueni/KEN_Makueni_Makindu.637660_SWERA.zip,onebuilding,5,6,16,8034,548,150,1
636240,KEN,Mandera,SWERA,3.93,41.87,/WMO_Region_1_Africa/KEN_Kenya/Mandera/KEN_Mandera_Mandera.636240_SWERA.zip,onebuilding,2,9,15,3402,1442,2495,1395
636410,KEN,Marsabit,SWERA,2.3,37.9,/WMO_Region_1_Africa/KEN_Kenya/Marsabit/KEN_Marsabit_Marsabit.636410_SWERA.zip,onebuilding,2,478,2811,5460,2,4,3
636190,KEN,Moyale,SWERA,3.53,39.05,/WMO_Region_1_Africa/KEN_Kenya/Marsabit/KEN_Marsabit_Moyale.636190_SWERA.zip,onebuilding,0,0,120,8226,295,116,3
636950,KEN,Meru,SWERA,0.08,37.65,/WMO_Region_1_Africa/KEN_Kenya/Meru/KEN_Meru_Meru.636950_SWERA.zip,onebuilding,0,23,232,8498,5,2,0
638200,KEN,Moi_Intl_AP,SWERA,-4.03,39.62,/WMO_Region_1_Africa/KEN_Kenya/Mombasa/KEN_Mombasa_Moi.Intl.AP.638200_SWERA.zip,onebuilding,0,0,3,4815,2218,1704,20
637410,KEN,Dagoretti_Corner,SWERA,-1.3,36.75,/WMO_Region_1_Africa/KEN_Kenya/Nairobi_City/KEN_Nairobi.City_Dagoretti.Corner.637410_SWERA.zip,onebuilding,0,3,63,8692,2,0,0
637400,KEN,Nairobi_Jomo_Kenyatta,SWERA,-1.32,36.92,/WMO_Region_1_Africa/KEN_Kenya/Nairobi_City/KEN_Nairobi.City_Kenyatta.Intl.AP.637400_SWERA.zip,onebuilding,1,13,317,8413,13,3,0
637420,KEN,Wilson_AP,SWERA,-1.32,36.82,/WMO_Region_1_Africa/KEN_Kenya/Nairobi_City/KEN_Nairobi.City_Wilson.AP.637420_SWERA.zip,onebuilding,4,23,572,8159,1,1,0
637140,KEN,Nakuru,SWERA,-0.27,36.1,/WMO_Region_1_Africa/KEN_Kenya/Nakuru/KEN_Nakuru_Nakuru.637140_SWERA.zip,onebuilding,0,12,144,8572,28,4,0
637370,KEN,Narok,SWERA,-1.13,35.83,/WMO_Region_1_Africa/KEN_Kenya/Narok/KEN_Narok_Narok.637370_SWERA.zip,onebuilding,1,30,1040,7682,7,0,0
637170,KEN,Nyeri,SWERA,-0.5,36.97,/WMO_Region_1_Africa/KEN_Kenya/Nyeri/KEN_Nyeri_Nyeri.637170_SWERA.zip,onebuilding,0,6,250,8502,2,0,0
637930,KEN,Voi,SWERA,-3.4,38.57,/WMO_Region_1_Africa/KEN_Kenya/Taita-Taveta/KEN_Taita-Taveta_Voi.637930_SWERA.zip,onebuilding,0,1,21,7031,887,765,55
636610,KEN,Kitale,SWERA,1.02,35.0,/WMO_Region_1_Africa/KEN_Kenya/Trans_Nzoia/KEN_Trans.Nzoia_Kitale.636610_SWERA.zip,onebuilding,0,22,193,8526,12,5,2
636120,KEN,Lodwar,SWERA,3.12,35.62,/WMO_Region_1_Africa/KEN_Kenya/Turkana/KEN_Turkana_Lodwar.636120_SWERA.zip,onebuilding,0,0,1,2990,1675,2776,1318
636860,KEN,Eldoret,SWERA,0.53,35.28,/WMO_Region_1_Africa/KEN_Kenya/Uasin_Gishu/KEN_Uasin.Gishu_Eldoret.636860_SWERA.zip,onebuilding,5,54,1118,7570,3,2,8
634500,ETH,Addis_Ababa_Bole_Intl,SWERA,8.98,38.8,/WMO_Region_1_Africa/ETH_Ethiopia/AA_Adis_Abeba/ETH_AA_Addis.Ababa.Bole.Intl.AP.634500_SWERA.zip,onebuilding,0,88,2488,6183,1,0,0
633320,ETH,Bahir_Dar,SWERA,11.6,37.4,/WMO_Region_1_Africa/ETH_Ethiopia/AM_Amara/ETH_AM_Bahir.Dar.633320_SWERA.zip,onebuilding,0,3,46,8339,311,61,0
633330,ETH,Dessie_Combolcha_AP,SWERA,11.08,39.72,/WMO_Region_1_Africa/ETH_Ethiopia/AM_Amara/ETH_AM_Dessie-Combolcha.AP.633330_SWERA.zip,onebuilding,15,10,120,8510,101,4,0
633310,ETH,Gondar,SWERA,12.53,37.43,/WMO_Region_1_Africa/ETH_Ethiopia/AM_Amara/ETH_AM_Gondar.633310_SWERA.zip,onebuilding,0,7,118,8486,131,18,0
633340,ETH,Debre_Marqos,SWERA,10.35,37.72,/WMO_Region_1_Africa/ETH_Ethiopia/AM_Amara/ETH_AM_Debre.Marqos.633340_SWERA.zip,onebuilding,3,28,787,7940,1,1,0
634710,ETH,Dire_Dawa,SWERA,9.6,41.87,/WMO_Region_1_Africa/ETH_Ethiopia/DD_Dire_Dawa/ETH_DD_Dire.Dawa.634710_SWERA.zip,onebuilding,0,5,21,6875,880,894,85
634020,ETH,Jimma,SWERA,7.67,36.83,/WMO_Region_1_Africa/ETH_Ethiopia/OR_Oromiya/ETH_OR_Jimma.634020_SWERA.zip,onebuilding,0,14,140,8308,248,47,3
634530,ETH,Metehara,SWERA,8.83,39.78,/WMO_Region_1_Africa/ETH_Ethiopia/OR_Oromiya/ETH_OR_Metehara.634530_SWERA.zip,onebuilding,0,4,13,5426,1207,1538,572
634600,ETH,Awassa,SWERA,7.07,38.05,/WMO_Region_1_Africa/ETH_Ethiopia/SN_YeDebub_Biheroch_Bihereseboch_na_Hizboch/ETH_SN_Awassa.634600_SWERA.zip,onebuilding,0,6,64,8432,221,37,0
654720,GHA,Accra_Kotoka_Intl_AP,SWERA,5.6,-0.17,/WMO_Region_1_Africa/GHA_Ghana/AA_Greater_Accra/GHA_AA_Accra.Kotoka.Intl.AP.654720_SWERA.zip,onebuilding,0,0,0,3094,2249,3256,161
419780,BGD,Chittagong_Patenga_Ama,SWERA,22.27,91.82,/WMO_Region_2_Asia/BGD_Bangladesh/Chittagong/BGD_Chittagong_Chittagong-Patenga-Amanat.Intl.AP.419780_SWERA.zip,onebuilding,0,8,5,3784,1526,2646,791
419920,BGD,Coxs_Bazar_AP,SWERA,21.43,91.97,/WMO_Region_2_Asia/BGD_Bangladesh/Chittagong/BGD_Chittagong_Coxs.Bazar.AP.419920_SWERA.zip,onebuilding,0,0,5,3003,1429,3316,1007
419230,BGD,Dhaka_Tejgaon_AP,SWERA,23.77,90.38,/WMO_Region_2_Asia/BGD_Bangladesh/Dhaka/BGD_Dhaka_Dhaka.Tejgaon.AP.419230_SWERA.zip,onebuilding,0,5,7,3163,785,2746,2054
419360,BGD,Jessore_AP,SWERA,23.18,89.17,/WMO_Region_2_Asia/BGD_Bangladesh/Khulna/BGD_Khulna_Jessore.AP.419360_SWERA.zip,onebuilding,0,0,2,3294,882,2647,1935
418830,BGD,Bogra,SWERA,24.85,89.37,/WMO_Region_2_Asia/BGD_Bangladesh/Rajshahi/BGD_Rajshahi_Bogra.418830_SWERA.zip,onebuilding,0,4,9,3443,950,2580,1774
419070,BGD,Ishwardi,SWERA,24.13,89.05,/WMO_Region_2_Asia/BGD_Bangladesh/Rajshahi/BGD_Rajshahi_Ishwardi.419070_SWERA.zip,onebuilding,0,14,8,3580,906,2739,1513
418590,BGD,Rangpur,SWERA,25.73,89.23,/WMO_Region_2_Asia/BGD_Bangladesh/Rangpur/BGD_Rangpur_Rangpur.418590_SWERA.zip,onebuilding,0,3,11,3839,849,2581,1477
418910,BGD,Sylhet_Osmani_Intl_AP,SWERA,24.9,91.88,/WMO_Region_2_Asia/BGD_Bangladesh/Sylhet/BGD_Sylhet_Sylhet.418910_SWERA.zip,onebuilding,0,5,10,3963,994,2749,1039
405820,KWT,Farwaniyah-Kuwait_Intl_AP,KISR,29.22,47.98,/WMO_Region_2_Asia/KWT_Kuwait/KWT_Farwaniyah-Kuwait.Intl.AP_KISR.zip,onebuilding,0,60,938,4006,514,925,2317
405850,KWT,Salmiya-KISR_Coastal_Weather_Station,KISR,29.35,48.1,/WMO_Region_2_Asia/KWT_Kuwait/KWT_Salmiya-KISR.Coastal.Station_KISR.zip,onebuilding,4,220,923,3769,485,1114,2269
584240,CHN,Anqing,CSWD,30.53,117.05,/WMO_Region_2_Asia/CHN_China/Anhui/CHN_Anhui_Anqing.584240_CSWD.zip,onebuilding,137,1518,1630,3525,495,879,576
583190,CHN,Dongcheng,CSWD,31.07,116.95,/WMO_Region_2_Asia/CHN_China/Anhui/CHN_Anhui_Dongcheng.583190_CSWD.zip,onebuilding,149,1520,1881,3662,496,752,300
582150,CHN,Shouxian,CSWD,32.55,116.78,/WMO_Region_2_Asia/CHN_China/Anhui/CHN_Anhui_Shouxian.582150_CSWD.zip,onebuilding,239,1774,1765,3431,488,749,314
582210,CHN,Bengbu,CSWD,32.95,117.38,/WMO_Region_2_Asia/CHN_China/Anhui/CHN_Anhui_Bengbu.582210_CSWD.zip,onebuilding,79,1394,2027,3603,494,732,431
583210,CHN,Hefei,CSWD,31.87,117.23,/WMO_Region_2_Asia/CHN_China/Anhui/CHN_Anhui_Hefei.583210_CSWD.zip,onebuilding,92,1364,1925,3768,408,789,414
585310,CHN,Tunxi,CSWD,29.72,118.28,/WMO_Region_2_Asia/CHN_China/Anhui/CHN_Anhui_Tunxi.585310_CSWD.zip,onebuilding,7,420,1836,4559,726,845,367
581020,CHN,Boxian,CSWD,33.87,115.77,/WMO_Region_2_Asia/CHN_China/Anhui/CHN_Anhui_Boxian.581020_CSWD.zip,onebuilding,95,1692,1946,3448,435,710,434
583140,CHN,Huoshan,CSWD,31.4,116.32,/WMO_Region_2_Asia/CHN_China/Anhui/CHN_Anhui_Huoshan.583140_CSWD.zip,onebuilding,3,790,2044,3936,579,825,583
545110,CHN,Beijing,CSWD,39.8,116.47,/WMO_Region_2_Asia/CHN_China/Beijing/CHN_Beijing_Beijing.545110_CSWD.zip,onebuilding,551,2094,1400,3516,449,565,185
544160,CHN,Miyun,CSWD,40.38,116.87,/WMO_Region_2_Asia/CHN_China/Beijing/CHN_Beijing_Miyun.544160_CSWD.zip,onebuilding,934,2069,1335,3462,337,516,107
575160,CHN,Chongqing_Shapingba,CSWD,29.58,106.47,/WMO_Region_2_Asia/CHN_China/Chongqing/CHN_Chongqing_Chongqing.Shapingba.575160_CSWD.zip,onebuilding,0,15,1277,5360,635,939,534
576330,CHN,Youyang,CSWD,28.83,108.77,/WMO_Region_2_Asia/CHN_China/Chongqing/CHN_Chongqing_Youyang.576330_CSWD.zip,onebuilding,0,151,2056,5178,624,624,127
591330,CHN,Congwu,CSWD,24.9,118.92,/WMO_Region_2_Asia/CHN_China/Fujian/CHN_Fujian_Congwu.591330_CSWD.zip,onebuilding,115,1139,1381,4512,884,691,38
588340,CHN,Nanping,CSWD,26.65,118.17,/WMO_Region_2_Asia/CHN_China/Fujian/CHN_Fujian_Nanping.588340_CSWD.zip,onebuilding,0,1,898,5095,905,1183,678
591340,CHN,Xiamen,CSWD,24.48,118.07,/WMO_Region_2_Asia/CHN_China/Fujian/CHN_Fujian_Xiamen.591340_CSWD.zip,onebuilding,4,219,1280,4883,816,1140,418
588470,CHN,Fuzhou,CSWD,26.08,119.28,/WMO_Region_2_Asia/CHN_China/Fujian/CHN_Fujian_Fuzhou.588470_CSWD.zip,onebuilding,0,160,1306,4925,735,1201,433
589180,CHN,Shanghang,CSWD,25.05,116.42,/WMO_Region_2_Asia/CHN_China/Fujian/CHN_Fujian_Shanghang.589180_CSWD.zip,onebuilding,5,373,1151,4303,1147,1267,514
589210,CHN,Yongan,CSWD,25.97,117.35,/WMO_Region_2_Asia/CHN_China/Fujian/CHN_Fujian_Yongan.589210_CSWD.zip,onebuilding,0,116,1022,5056,1092,1086,388
587370,CHN,Jianou,CSWD,27.05,118.32,/WMO_Region_2_Asia/CHN_China/Fujian/CHN_Fujian_Jianou.587370_CSWD.zip,onebuilding,0,44,1211,4921,804,1165,615
524180,CHN,Dunhuang,CSWD,40.15,94.68,/WMO_Region_2_Asia/CHN_China/Gansu/CHN_Gansu_Dunhuang.524180_CSWD.zip,onebuilding,870,2268,1453,3524,235,286,124
560930,CHN,Minxian,CSWD,34.43,104.02,/WMO_Region_2_Asia/CHN_China/Gansu/CHN_Gansu_Minxian.560930_CSWD.zip,onebuilding,473,2359,2578,3349,1,0,0
527870,CHN,Wushaoling,CSWD,37.2,102.87,/WMO_Region_2_Asia/CHN_China/Gansu/CHN_Gansu_Wushaoling.527870_CSWD.zip,onebuilding,4034,2770,1520,436,0,0,0
560800,CHN,Hezuo,CSWD,35.0,102.9,/WMO_Region_2_Asia/CHN_China/Gansu/CHN_Gansu_Hezuo.560800_CSWD.zip,onebuilding,1074,2867,2776,2043,0,0,0
539150,CHN,Pingliang,CSWD,35.55,106.67,/WMO_Region_2_Asia/CHN_China/Gansu/CHN_Gansu_Pingliang.539150_CSWD.zip,onebuilding,558,2291,1860,3866,127,57,1
539230,CHN,Xifengzhen,CSWD,35.73,107.63,/WMO_Region_2_Asia/CHN_China/Gansu/CHN_Gansu_Xifengzhen.539230_CSWD.zip,onebuilding,666,2657,1628,3690,84,35,0
525330,CHN,Jiuquan,CSWD,39.77,98.48,/WMO_Region_2_Asia/CHN_China/Gansu/CHN_Gansu_Jiuquan.525330_CSWD.zip,onebuilding,1159,2240,1537,3533,173,118,0
570060,CHN,Tianshui,CSWD,34.58,105.75,/WMO_Region_2_Asia/CHN_China/Gansu/CHN_Gansu_Tianshui.570060_CSWD.zip,onebuilding,28,1680,1986,4634,219,201,12
524360,CHN,Yumenzhen,CSWD,40.27,97.03,/WMO_Region_2_Asia/CHN_China/Gansu/CHN_Gansu_Yumenzhen.524360_CSWD.zip,onebuilding,2327,1798,1380,3047,113,90,5
528890,CHN,Lanzhou,CSWD,36.05,103.88,/WMO_Region_2_Asia/CHN_China/Gansu/CHN_Gansu_Lanzhou.528890_CSWD.zip,onebuilding,125,1770,2121,4361,220,152,11
560960,CHN,Wudu,CSWD,33.4,104.92,/WMO_Region_2_Asia/CHN_China/Gansu/CHN_Gansu_Wudu.560960_CSWD.zip,onebuilding,21,510,2480,5173,283,259,34
529830,CHN,Yuzhong,CSWD,35.87,104.15,/WMO_Region_2_Asia/CHN_China/Gansu/CHN_Gansu_Yuzhong.529830_CSWD.zip,onebuilding,637,2612,2163,3282,58,8,0
526810,CHN,Minqin,CSWD,38.63,103.08,/WMO_Region_2_Asia/CHN_China/Gansu/CHN_Gansu_Minqin.526810_CSWD.zip,onebuilding,1399,2134,1573,3368,154,117,15
596640,CHN,Dianbai,CSWD,21.5,111.0,/WMO_Region_2_Asia/CHN_China/Guangdong/CHN_Guangdong_Dianbai.596640_CSWD.zip,onebuilding,0,0,173,4610,1060,2351,566
579960,CHN,Nanxiong,CSWD,25.13,114.32,/WMO_Region_2_Asia/CHN_China/Guangdong/CHN_Guangdong_Nanxiong.579960_CSWD.zip,onebuilding,0,157,1275,4337,897,1517,577
590820,CHN,Shaoguan,CSWD,24.68,113.6,/WMO_Region_2_Asia/CHN_China/Guangdong/CHN_Guangdong_Shaoguan.590820_CSWD.zip,onebuilding,2,168,843,4765,945,1476,561
592870,CHN,Guangzhou,CSWD,23.17,113.33,/WMO_Region_2_Asia/CHN_China/Guangdong/CHN_Guangdong_Guangzhou.592870_CSWD.zip,onebuilding,0,26,579,4460,1003,1732,960
593160,CHN,Shantou,CSWD,23.4,116.68,/WMO_Region_2_Asia/CHN_China/Guangdong/CHN_Guangdong_Shantou.593160_CSWD.zip,onebuilding,0,1,598,4983,812,2077,289
596630,CHN,Yangjiang,CSWD,21.87,111.97,/WMO_Region_2_Asia/CHN_China/Guangdong/CHN_Guangdong_Yangjiang.596630_CSWD.zip,onebuilding,0,2,561,4680,1012,1935,570
592930,CHN,Heyuan,CSWD,23.73,114.68,/WMO_Region_2_Asia/CHN_China/Guangdong/CHN_Guangdong_Heyuan.592930_CSWD.zip,onebuilding,0,70,741,4356,923,1880,790
595010,CHN,Shanwei,CSWD,22.8,115.37,/WMO_Region_2_Asia/CHN_China/Guangdong/CHN_Guangdong_Shanwei.595010_CSWD.zip,onebuilding,1,58,499,5033,714,1880,575
592940,CHN,Zhengcheng,CSWD,23.33,113.83,/WMO_Region_2_Asia/CHN_China/Guangdong/CHN_Guangdong_Zhengcheng.592940_CSWD.zip,onebuilding,5,259,876,3931,1073,1916,700
592110,CHN,Baise,CSWD,23.9,106.6,/WMO_Region_2_Asia/CHN_China/Guangxi/CHN_Guangxi_Baise.592110_CSWD.zip,onebuilding,0,0,227,4811,1023,1754,945
590230,CHN,Hechi,CSWD,24.7,108.05,/WMO_Region_2_Asia/CHN_China/Guangxi/CHN_Guangxi_Hechi.590230_CSWD.zip,onebuilding,0,17,561,4901,884,1705,692
594310,CHN,Nanning,CSWD,22.63,108.22,/WMO_Region_2_Asia/CHN_China/Guangxi/CHN_Guangxi_Nanning.594310_CSWD.zip,onebuilding,0,14,312,4655,710,2088,981
590370,CHN,Duan,CSWD,23.93,108.1,/WMO_Region_2_Asia/CHN_China/Guangxi/CHN_Guangxi_Duan.590370_CSWD.zip,onebuilding,0,185,1183,4312,1001,1618,461
594460,CHN,Lingshan,CSWD,22.42,109.3,/WMO_Region_2_Asia/CHN_China/Guangxi/CHN_Guangxi_Lingshan.594460_CSWD.zip,onebuilding,0,137,713,4400,910,1937,663
596320,CHN,Qinzhou,CSWD,21.95,108.62,/WMO_Region_2_Asia/CHN_China/Guangxi/CHN_Guangxi_Qinzhou.596320_CSWD.zip,onebuilding,0,107,847,3923,836,2213,834
579570,CHN,Guilin,CSWD,25.32,110.3,/WMO_Region_2_Asia/CHN_China/Guangxi/CHN_Guangxi_Guilin.579570_CSWD.zip,onebuilding,12,880,1421,3669,890,1475,413
594170,CHN,Longzhou,CSWD,22.33,106.85,/WMO_Region_2_Asia/CHN_China/Guangxi/CHN_Guangxi_Longzhou.594170_CSWD.zip,onebuilding,0,0,210,4544,978,2044,984
592650,CHN,Wuzhou,CSWD,23.48,111.3,/WMO_Region_2_Asia/CHN_China/Guangxi/CHN_Guangxi_Wuzhou.592650_CSWD.zip,onebuilding,0,13,888,4338,1058,1598,865
592540,CHN,Guiping,CSWD,23.4,110.08,/WMO_Region_2_Asia/CHN_China/Guangxi/CHN_Guangxi_Guiping.592540_CSWD.zip,onebuilding,0,0,315,4657,893,1997,898
577070,CHN,Bijie,CSWD,27.3,105.28,/WMO_Region_2_Asia/CHN_China/Guizhou/CHN_Guizhou_Bijie.577070_CSWD.zip,onebuilding,0,359,2302,5758,198,142,1
576060,CHN,Tongzi,CSWD,28.13,106.83,/WMO_Region_2_Asia/CHN_China/Guizhou/CHN_Guizhou_Tongzi.576060_CSWD.zip,onebuilding,2,599,2363,5282,298,199,17
579020,CHN,Xingyi,CSWD,25.43,105.18,/WMO_Region_2_Asia/CHN_China/Guizhou/CHN_Guizhou_Xingyi.579020_CSWD.zip,onebuilding,0,341,1959,6301,130,29,0
578160,CHN,Guiyang,CSWD,26.58,106.73,/WMO_Region_2_Asia/CHN_China/Guizhou/CHN_Guizhou_Guiyang.578160_CSWD.zip,onebuilding,11,834,2082,5461,267,104,1
566910,CHN,Weining,CSWD,26.87,104.28,/WMO_Region_2_Asia/CHN_China/Guizhou/CHN_Guizhou_Weining.566910_CSWD.zip,onebuilding,275,1968,2722,3795,0,0,0
577130,CHN,Zunyi,CSWD,27.7,106.88,/WMO_Region_2_Asia/CHN_China/Guizhou/CHN_Guizhou_Zunyi.577130_CSWD.zip,onebuilding,0,350,1975,5397,513,481,44
578320,CHN,Sansui,CSWD,26.97,108.67,/WMO_Region_2_Asia/CHN_China/Guizhou/CHN_Guizhou_Sansui.578320_CSWD.zip,onebuilding,2,522,2210,4848,543,529,106
598380,CHN,Dongfang,CSWD,19.1,108.62,/WMO_Region_2_Asia/CHN_China/Hainan/CHN_Hainan_Dongfang.598380_CSWD.zip,onebuilding,0,25,401,3994,1118,2905,317
597580,CHN,Haikou,CSWD,20.03,110.35,/WMO_Region_2_Asia/CHN_China/Hainan/CHN_Hainan_Haikou.597580_CSWD.zip,onebuilding,0,0,64,4168,1029,2572,927
598550,CHN,Qionghai,CSWD,19.23,110.47,/WMO_Region_2_Asia/CHN_China/Hainan/CHN_Hainan_Qionghai.598550_CSWD.zip,onebuilding,0,0,87,3986,1183,2580,924
544230,CHN,Chengde,CSWD,40.98,117.95,/WMO_Region_2_Asia/CHN_China/Hebei/CHN_Hebei_Chengde.544230_CSWD.zip,onebuilding,678,2143,1477,3708,341,340,73
545390,CHN,Leting,CSWD,39.43,118.88,/WMO_Region_2_Asia/CHN_China/Hebei/CHN_Hebei_Leting.545390_CSWD.zip,onebuilding,631,2224,1466,3669,400,338,32
537980,CHN,Xingtai,CSWD,37.07,114.5,/WMO_Region_2_Asia/CHN_China/Hebei/CHN_Hebei_Xingtai.537980_CSWD.zip,onebuilding,45,1545,1913,3631,512,764,350
543080,CHN,Fengning,CSWD,41.22,116.63,/WMO_Region_2_Asia/CHN_China/Hebei/CHN_Hebei_Fengning.543080_CSWD.zip,onebuilding,1279,2201,1294,3794,119,70,3
546060,CHN,Raoyang,CSWD,38.23,115.73,/WMO_Region_2_Asia/CHN_China/Hebei/CHN_Hebei_Raoyang.546060_CSWD.zip,onebuilding,272,2173,1532,3522,427,593,241
533990,CHN,Zhangbei,CSWD,41.15,114.7,/WMO_Region_2_Asia/CHN_China/Hebei/CHN_Hebei_Zhangbei.533990_CSWD.zip,onebuilding,2996,1856,1403,2505,0,0,0
544050,CHN,Huailai,CSWD,40.4,115.5,/WMO_Region_2_Asia/CHN_China/Hebei/CHN_Hebei_Huailai.544050_CSWD.zip,onebuilding,1331,1991,1331,3470,293,309,35
536980,CHN,Shijiazhuang,CSWD,38.03,114.42,/WMO_Region_2_Asia/CHN_China/Hebei/CHN_Hebei_Shijiazhuang.536980_CSWD.zip,onebuilding,184,1902,1554,3762,476,670,212
508540,CHN,Anda,CSWD,46.38,125.32,/WMO_Region_2_Asia/CHN_China/Heilongjiang/CHN_Heilongjiang_Anda.508540_CSWD.zip,onebuilding,2884,1721,1121,2787,154,87,6
508730,CHN,Jiamusi,CSWD,46.82,130.28,/WMO_Region_2_Asia/CHN_China/Heilongjiang/CHN_Heilongjiang_Jiamusi.508730_CSWD.zip,onebuilding,3092,1525,1151,2729,162,98,3
507450,CHN,Qiqihar,CSWD,47.38,123.92,/WMO_Region_2_Asia/CHN_China/Heilongjiang/CHN_Heilongjiang_Qiqihar.507450_CSWD.zip,onebuilding,2918,1706,1170,2704,157,90,15
507880,CHN,Fujin,CSWD,47.23,131.98,/WMO_Region_2_Asia/CHN_China/Heilongjiang/CHN_Heilongjiang_Fujin.507880_CSWD.zip,onebuilding,3160,1444,1109,2773,125,107,42
509780,CHN,Jixi,CSWD,45.28,130.95,/WMO_Region_2_Asia/CHN_China/Heilongjiang/CHN_Heilongjiang_Jixi.509780_CSWD.zip,onebuilding,2909,1525,1274,2931,94,27,0
509680,CHN,Shangzhi,CSWD,45.22,127.97,/WMO_Region_2_Asia/CHN_China/Heilongjiang/CHN_Heilongjiang_Shangzhi.509680_CSWD.zip,onebuilding,2842,1577,1348,2827,101,64,1
507420,CHN,Fuyu,CSWD,47.78,124.48,/WMO_Region_2_Asia/CHN_China/Heilongjiang/CHN_Heilongjiang_Fuyu.507420_CSWD.zip,onebuilding,3259,1613,1112,2626,67,75,8
506580,CHN,Keshan,CSWD,48.05,125.88,/WMO_Region_2_Asia/CHN_China/Heilongjiang/CHN_Heilongjiang_Keshan.506580_CSWD.zip,onebuilding,3111,1590,1159,2787,75,35,3
540960,CHN,Suifenhe,CSWD,44.38,131.17,/WMO_Region_2_Asia/CHN_China/Heilongjiang/CHN_Heilongjiang_Suifenhe.540960_CSWD.zip,onebuilding,2909,1590,1277,2840,74,61,9
507560,CHN,Hailun,CSWD,47.43,126.97,/WMO_Region_2_Asia/CHN_China/Heilongjiang/CHN_Heilongjiang_Hailun.507560_CSWD.zip,onebuilding,3191,1624,1161,2623,105,52,4
501360,CHN,Mohe,CSWD,52.97,122.52,/WMO_Region_2_Asia/CHN_China/Heilongjiang/CHN_Heilongjiang_Mohe.501360_CSWD.zip,onebuilding,3597,1613,1232,2228,70,18,2
505640,CHN,Sunwu,CSWD,49.43,127.35,/WMO_Region_2_Asia/CHN_China/Heilongjiang/CHN_Heilongjiang_Sunwu.505640_CSWD.zip,onebuilding,3417,1591,1197,2517,29,9,0
509530,CHN,Harbin,CSWD,45.75,126.77,/WMO_Region_2_Asia/CHN_China/Heilongjiang/CHN_Heilongjiang_Harbin.509530_CSWD.zip,onebuilding,3035,1431,1142,2940,110,102,0
540940,CHN,Mudanjiang,CSWD,44.57,129.6,/WMO_Region_2_Asia/CHN_China/Heilongjiang/CHN_Heilongjiang_Mudanjiang.540940_CSWD.zip,onebuilding,2412,1584,1316,3166,153,118,11
509630,CHN,Tonghe,CSWD,45.97,128.73,/WMO_Region_2_Asia/CHN_China/Heilongjiang/CHN_Heilongjiang_Tonghe.509630_CSWD.zip,onebuilding,3441,1328,1091,2744,98,57,1
503530,CHN,Huma,CSWD,51.72,126.65,/WMO_Region_2_Asia/CHN_China/Heilongjiang/CHN_Heilongjiang_Huma.503530_CSWD.zip,onebuilding,3235,1512,1127,2739,86,56,5
505570,CHN,Nenjiang,CSWD,49.17,125.23,/WMO_Region_2_Asia/CHN_China/Heilongjiang/CHN_Heilongjiang_Nenjiang.505570_CSWD.zip,onebuilding,3525,1606,1115,2402,61,41,10
509500,CHN,Zhaozhou,CSWD,45.7,125.25,/WMO_Region_2_Asia/CHN_China/Heilongjiang/CHN_Heilongjiang_Zhaozhou.509500_CSWD.zip,onebuilding,2961,1484,1061,3017,162,75,0
538980,CHN,Anyang,CSWD,36.05,114.4,/WMO_Region_2_Asia/CHN_China/Henan/CHN_Henan_Anyang.538980_CSWD.zip,onebuilding,74,1952,1834,3527,479,692,202
580050,CHN,Shangqiu,CSWD,34.45,115.67,/WMO_Region_2_Asia/CHN_China/Henan/CHN_Henan_Shangqiu.580050_CSWD.zip,onebuilding,51,1828,1782,3537,519,688,355
570830,CHN,Zhengzhou,CSWD,34.72,113.65,/WMO_Region_2_Asia/CHN_China/Henan/CHN_Henan_Zhengzhou.570830_CSWD.zip,onebuilding,99,1732,1832,3635,459,728,275
570670,CHN,Lushi,CSWD,34.05,111.03,/WMO_Region_2_Asia/CHN_China/Henan/CHN_Henan_Lushi.570670_CSWD.zip,onebuilding,54,1525,1901,4337,352,394,197
572970,CHN,Xinyang,CSWD,32.13,114.05,/WMO_Region_2_Asia/CHN_China/Henan/CHN_Henan_Xinyang.572970_CSWD.zip,onebuilding,188,1227,2037,3930,455,640,283
572900,CHN,Zhumadian,CSWD,33.0,114.02,/WMO_Region_2_Asia/CHN_China/Henan/CHN_Henan_Zhumadian.572900_CSWD.zip,onebuilding,95,1518,1684,3920,468,634,441
571780,CHN,Nanyang,CSWD,33.03,112.58,/WMO_Region_2_Asia/CHN_China/Henan/CHN_Henan_Nanyang.571780_CSWD.zip,onebuilding,99,1323,2034,3683,548,814,259
450070,CHN,Hong_Kong_Intl_AP,UHK,22.31,113.92,/WMO_Region_2_Asia/CHN_China/Hong_Kong/CHN_Hong.Kong.SAR_Hong.Kong.Intl.AP.450070_UHK.zip,onebuilding,0,1,407,4945,883,2197,327
574470,CHN,Exi,CSWD,30.28,109.47,/WMO_Region_2_Asia/CHN_China/Hubei/CHN_Hubei_Exi.574470_CSWD.zip,onebuilding,0,94,1894,5115,613,802,242
574940,CHN,Wuhan,CSWD,30.62,114.13,/WMO_Region_2_Asia/CHN_China/Hubei/CHN_Hubei_Wuhan.574940_CSWD.zip,onebuilding,12,444,1939,3882,572,1054,857
572510,CHN,Yunxi,CSWD,33.0,110.42,/WMO_Region_2_Asia/CHN_China/Hubei/CHN_Hubei_Yunxi.572510_CSWD.zip,onebuilding,0,450,2275,4327,529,858,321
572650,CHN,Laohekou,CSWD,32.38,111.67,/WMO_Region_2_Asia/CHN_China/Hubei/CHN_Hubei_Laohekou.572650_CSWD.zip,onebuilding,8,884,2078,4099,517,752,422
574610,CHN,Yichang,CSWD,30.7,111.3,/WMO_Region_2_Asia/CHN_China/Hubei/CHN_Hubei_Yichang.574610_CSWD.zip,onebuilding,0,341,2097,4373,666,934,349
573780,CHN,Zhongxiang,CSWD,31.17,112.57,/WMO_Region_2_Asia/CHN_China/Hubei/CHN_Hubei_Zhongxiang.573780_CSWD.zip,onebuilding,102,1288,1796,3837,511,827,399
573990,CHN,Macheng,CSWD,31.18,115.02,/WMO_Region_2_Asia/CHN_China/Hubei/CHN_Hubei_Macheng.573990_CSWD.zip,onebuilding,26,829,2052,3913,427,907,606
576620,CHN,Changde,CSWD,29.05,111.68,/WMO_Region_2_Asia/CHN_China/Hunan/CHN_Hunan_Changde.576620_CSWD.zip,onebuilding,22,457,2096,4050,579,901,655
578660,CHN,Lingling,CSWD,26.23,111.62,/WMO_Region_2_Asia/CHN_China/Hunan/CHN_Hunan_Lingling.578660_CSWD.zip,onebuilding,57,965,1756,3866,654,995,467
578530,CHN,Wugang,CSWD,26.73,110.63,/WMO_Region_2_Asia/CHN_China/Hunan/CHN_Hunan_Wugang.578530_CSWD.zip,onebuilding,0,411,1971,4325,761,968,324
578740,CHN,Changning,CSWD,26.42,112.4,/WMO_Region_2_Asia/CHN_China/Hunan/CHN_Hunan_Changning.578740_CSWD.zip,onebuilding,4,387,1635,4249,667,1301,517
575740,CHN,Nanxian,CSWD,29.37,112.4,/WMO_Region_2_Asia/CHN_China/Hunan/CHN_Hunan_Nanxian.575740_CSWD.zip,onebuilding,25,654,1993,3903,580,999,606
577450,CHN,Zhijiang,CSWD,27.45,109.68,/WMO_Region_2_Asia/CHN_China/Hunan/CHN_Hunan_Zhijiang.577450_CSWD.zip,onebuilding,10,583,1971,4115,637,965,479
576870,CHN,Changsha,CSWD,28.22,112.92,/WMO_Region_2_Asia/CHN_China/Hunan/CHN_Hunan_Changsha.576870_CSWD.zip,onebuilding,45,768,1984,3845,605,1003,510
575620,CHN,Shimen,CSWD,29.58,111.37,/WMO_Region_2_Asia/CHN_China/Hunan/CHN_Hunan_Shimen.575620_CSWD.zip,onebuilding,13,630,1850,4501,549,801,416
577800,CHN,Zhuzhou,CSWD,27.87,113.17,/WMO_Region_2_Asia/CHN_China/Hunan/CHN_Hunan_Zhuzhou.577800_CSWD.zip,onebuilding,6,525,1959,3873,580,1141,676
576490,CHN,Jishou,CSWD,28.32,109.73,/WMO_Region_2_Asia/CHN_China/Hunan/CHN_Hunan_Jishou.576490_CSWD.zip,onebuilding,0,158,1807,4679,621,1016,479
582510,CHN,Dongtai,CSWD,32.87,120.32,/WMO_Region_2_Asia/CHN_China/Jiangsu/CHN_Jiangsu_Dongtai.582510_CSWD.zip,onebuilding,122,1363,2154,3715,421,658,327
581440,CHN,Huaiyang-Qingjiang,CSWD,33.63,119.02,/WMO_Region_2_Asia/CHN_China/Jiangsu/CHN_Jiangsu_Huaiyang-Qingjiang.581440_CSWD.zip,onebuilding,41,1233,1903,4089,517,695,282
582380,CHN,Nanjing,CSWD,32.83,118.8,/WMO_Region_2_Asia/CHN_China/Jiangsu/CHN_Jiangsu_Nanjing.582380_CSWD.zip,onebuilding,60,1084,2031,3866,373,824,522
580400,CHN,Ganyu,CSWD,34.83,119.12,/WMO_Region_2_Asia/CHN_China/Jiangsu/CHN_Jiangsu_Ganyu.580400_CSWD.zip,onebuilding,123,1755,1930,3814,439,489,210
582650,CHN,Lusi,CSWD,32.07,121.6,/WMO_Region_2_Asia/CHN_China/Jiangsu/CHN_Jiangsu_Lusi.582650_CSWD.zip,onebuilding,226,1586,1749,3995,547,565,92
580270,CHN,Xuzhou,CSWD,34.28,117.15,/WMO_Region_2_Asia/CHN_China/Jiangsu/CHN_Jiangsu_Xuzhou.580270_CSWD.zip,onebuilding,157,1441,1943,3784,419,672,344
579930,CHN,Ganzhou,CSWD,25.87,115.0,/WMO_Region_2_Asia/CHN_China/Jiangxi/CHN_Jiangxi_Ganzhou.579930_CSWD.zip,onebuilding,0,198,1312,4262,811,1451,726
586060,CHN,Nanchang,CSWD,28.6,115.92,/WMO_Region_2_Asia/CHN_China/Jiangxi/CHN_Jiangxi_Nanchang.586060_CSWD.zip,onebuilding,22,669,1905,3886,528,1041,709
577930,CHN,Yichun,CSWD,27.8,114.38,/WMO_Region_2_Asia/CHN_China/Jiangxi/CHN_Jiangxi_Yichun.577930_CSWD.zip,onebuilding,1,422,2143,4060,586,1007,541
577990,CHN,Jian,CSWD,27.05,114.92,/WMO_Region_2_Asia/CHN_China/Jiangxi/CHN_Jiangxi_Jian.577990_CSWD.zip,onebuilding,0,382,1621,4392,659,1031,675
587150,CHN,Nancheng,CSWD,27.58,116.65,/WMO_Region_2_Asia/CHN_China/Jiangxi/CHN_Jiangxi_Nancheng.587150_CSWD.zip,onebuilding,41,1174,1497,4112,556,835,545
586340,CHN,Yushan,CSWD,28.68,118.33,/WMO_Region_2_Asia/CHN_China/Jiangxi/CHN_Jiangxi_Yushan.586340_CSWD.zip,onebuilding,38,680,1720,4320,500,913,589
585270,CHN,Jingdezhen,CSWD,29.3,117.2,/WMO_Region_2_Asia/CHN_China/Jiangxi/CHN_Jiangxi_Jingdezhen.585270_CSWD.zip,onebuilding,0,571,1898,4050,587,959,695
578960,CHN,Suichuan,CSWD,26.33,114.5,/WMO_Region_2_Asia/CHN_China/Jiangxi/CHN_Jiangxi_Suichuan.578960_CSWD.zip,onebuilding,2,208,1503,4476,726,1218,627
509360,CHN,Baicheng,CSWD,45.63,122.83,/WMO_Region_2_Asia/CHN_China/Jilin/CHN_Jilin_Baicheng.509360_CSWD.zip,onebuilding,3015,1556,1055,2849,146,131,8
541860,CHN,Dunhua,CSWD,43.37,128.2,/WMO_Region_2_Asia/CHN_China/Jilin/CHN_Jilin_Dunhua.541860_CSWD.zip,onebuilding,2600,1702,1223,3181,51,3,0
541570,CHN,Siping,CSWD,43.17,124.33,/WMO_Region_2_Asia/CHN_China/Jilin/CHN_Jilin_Siping.541570_CSWD.zip,onebuilding,1973,1998,1130,3226,230,175,28
541610,CHN,Changchun,CSWD,43.9,125.22,/WMO_Region_2_Asia/CHN_China/Jilin/CHN_Jilin_Changchun.541610_CSWD.zip,onebuilding,2996,1514,1117,2970,104,49,10
543740,CHN,Linjiang,CSWD,41.0,126.92,/WMO_Region_2_Asia/CHN_China/Jilin/CHN_Jilin_Linjiang.543740_CSWD.zip,onebuilding,1501,1790,1547,3542,192,178,10
542920,CHN,Yanji,CSWD,42.88,129.47,/WMO_Region_2_Asia/CHN_China/Jilin/CHN_Jilin_Yanji.542920_CSWD.zip,onebuilding,2135,1864,1193,3256,163,121,28
542840,CHN,Donggang,CSWD,42.1,127.57,/WMO_Region_2_Asia/CHN_China/Jilin/CHN_Jilin_Donggang.542840_CSWD.zip,onebuilding,2353,1996,1249,3047,73,40,2
509490,CHN,Qian_Gorlos,CSWD,45.08,124.87,/WMO_Region_2_Asia/CHN_China/Jilin/CHN_Jilin_Qian.Gorlos.509490_CSWD.zip,onebuilding,2444,1588,1370,3033,159,159,7
543460,CHN,Benxi,CSWD,41.32,123.78,/WMO_Region_2_Asia/CHN_China/Liaoning/CHN_Liaoning_Benxi.543460_CSWD.zip,onebuilding,1729,1925,1274,3391,208,204,29
543370,CHN,Jinzhou,CSWD,41.68,121.12,/WMO_Region_2_Asia/CHN_China/Liaoning/CHN_Liaoning_Jinzhou.543370_CSWD.zip,onebuilding,1278,2254,1247,3607,231,138,5
543330,CHN,Xinmin,CSWD,41.98,122.83,/WMO_Region_2_Asia/CHN_China/Liaoning/CHN_Liaoning_Xinmin.543330_CSWD.zip,onebuilding,1892,1891,1265,3308,275,122,7
543240,CHN,Chaoyang,CSWD,41.55,120.45,/WMO_Region_2_Asia/CHN_China/Liaoning/CHN_Liaoning_Chaoyang.543240_CSWD.zip,onebuilding,1233,2147,1282,3536,302,229,31
544930,CHN,Kuandian,CSWD,40.72,124.78,/WMO_Region_2_Asia/CHN_China/Liaoning/CHN_Liaoning_Kuandian.544930_CSWD.zip,onebuilding,885,2374,1444,3724,231,99,3
544710,CHN,Yingkou,CSWD,40.67,122.27,/WMO_Region_2_Asia/CHN_China/Liaoning/CHN_Liaoning_Yingkou.544710_CSWD.zip,onebuilding,1638,2170,1192,3444,175,122,19
546620,CHN,Dalian,CSWD,38.9,121.63,/WMO_Region_2_Asia/CHN_China/Liaoning/CHN_Liaoning_Dalian.546620_CSWD.zip,onebuilding,1785,1925,1395,3499,137,19,0
543420,CHN,Shenyang,CSWD,41.73,123.45,/WMO_Region_2_Asia/CHN_China/Liaoning/CHN_Liaoning_Shenyang.543420_CSWD.zip,onebuilding,1861,1810,1303,3224,294,234,34
542360,CHN,Zhangwu,CSWD,42.42,122.53,/WMO_Region_2_Asia/CHN_China/Liaoning/CHN_Liaoning_Zhangwu.542360_CSWD.zip,onebuilding,2474,1864,1136,2955,197,132,2
544970,CHN,Dandong,CSWD,40.05,124.33,/WMO_Region_2_Asia/CHN_China/Liaoning/CHN_Liaoning_Dandong.544970_CSWD.zip,onebuilding,1301,2058,1465,3510,248,155,23
544550,CHN,Xingcheng,CSWD,40.58,120.7,/WMO_Region_2_Asia/CHN_China/Liaoning/CHN_Liaoning_Xingcheng.544550_CSWD.zip,onebuilding,758,2433,1448,3536,343,239,3
531920,CHN,Abag_Qi_Hot,CSWD,44.02,114.95,/WMO_Region_2_Asia/CHN_China/Nei_Mongol/CHN_Nei.Mongol_Abag.Qi.Hot.531920_CSWD.zip,onebuilding,3289,1722,1190,2456,62,34,7
522670,CHN,Ejin_Qi,CSWD,41.95,101.07,/WMO_Region_2_Asia/CHN_China/Nei_Mongol/CHN_Nei.Mongol_Ejin.Qi.522670_CSWD.zip,onebuilding,1779,1936,1372,2843,250,352,228
541340,CHN,Kailu,CSWD,43.6,121.28,/WMO_Region_2_Asia/CHN_China/Nei_Mongol/CHN_Nei.Mongol_Kailu.541340_CSWD.zip,onebuilding,2932,1523,899,3037,177,164,28
507270,CHN,Arxan,CSWD,47.17,119.93,/WMO_Region_2_Asia/CHN_China/Nei_Mongol/CHN_Nei.Mongol_Arxan.507270_CSWD.zip,onebuilding,3687,1800,1183,2081,9,0,0
530680,CHN,Erenhot,CSWD,43.65,111.97,/WMO_Region_2_Asia/CHN_China/Nei_Mongol/CHN_Nei.Mongol_Erenhot.530680_CSWD.zip,onebuilding,3208,1499,1193,2573,123,115,49
541150,CHN,Linxi,CSWD,43.6,118.07,/WMO_Region_2_Asia/CHN_China/Nei_Mongol/CHN_Nei.Mongol_Linxi.541150_CSWD.zip,onebuilding,2501,1738,1368,2942,108,89,14
533520,CHN,Bailingmiao,CSWD,41.7,110.43,/WMO_Region_2_Asia/CHN_China/Nei_Mongol/CHN_Nei.Mongol_Bailingmiao.533520_CSWD.zip,onebuilding,2767,1988,1263,2642,60,40,0
505270,CHN,Hailar,CSWD,49.22,119.75,/WMO_Region_2_Asia/CHN_China/Nei_Mongol/CHN_Nei.Mongol_Hailar.505270_CSWD.zip,onebuilding,3644,1488,1367,2176,45,35,5
505140,CHN,Manzhouli,CSWD,49.57,117.43,/WMO_Region_2_Asia/CHN_China/Nei_Mongol/CHN_Nei.Mongol_Manzhouli.505140_CSWD.zip,onebuilding,3755,1693,1112,2172,23,5,0
540270,CHN,Bairin_Zuo_Qi,CSWD,43.98,119.4,/WMO_Region_2_Asia/CHN_China/Nei_Mongol/CHN_Nei.Mongol_Bairin.Zuo.Qi.540270_CSWD.zip,onebuilding,2339,1843,1344,2867,154,190,23
532310,CHN,Hailisu,CSWD,41.4,106.4,/WMO_Region_2_Asia/CHN_China/Nei_Mongol/CHN_Nei.Mongol_Hailisu.532310_CSWD.zip,onebuilding,3562,1570,1338,2173,72,40,5
535290,CHN,Otog_Qi,CSWD,39.1,107.98,/WMO_Region_2_Asia/CHN_China/Nei_Mongol/CHN_Nei.Mongol_Otog.Qi.535290_CSWD.zip,onebuilding,1515,2355,1376,3352,102,60,0
524950,CHN,Bayan_Mod,CSWD,40.17,104.8,/WMO_Region_2_Asia/CHN_China/Nei_Mongol/CHN_Nei.Mongol_Bayan.Mod.524950_CSWD.zip,onebuilding,2191,1844,1229,3156,168,169,3
533360,CHN,Haliut,CSWD,41.57,108.52,/WMO_Region_2_Asia/CHN_China/Nei_Mongol/CHN_Nei.Mongol_Haliut.533360_CSWD.zip,onebuilding,1975,2148,1496,2994,97,44,6
508340,CHN,Solon,CSWD,46.6,121.22,/WMO_Region_2_Asia/CHN_China/Nei_Mongol/CHN_Nei.Mongol_Solon.508340_CSWD.zip,onebuilding,3025,1695,1150,2696,101,84,9
506320,CHN,Bugt,CSWD,48.77,121.92,/WMO_Region_2_Asia/CHN_China/Nei_Mongol/CHN_Nei.Mongol_Bugt.506320_CSWD.zip,onebuilding,3685,1558,1201,2313,3,0,0
534630,CHN,Hohhot,CSWD,40.82,111.68,/WMO_Region_2_Asia/CHN_China/Nei_Mongol/CHN_Nei.Mongol_Hohhot.534630_CSWD.zip,onebuilding,1586,2147,1209,3513,199,102,4
541350,CHN,Tongliao,CSWD,43.6,122.27,/WMO_Region_2_Asia/CHN_China/Nei_Mongol/CHN_Nei.Mongol_Tongliao.541350_CSWD.zip,onebuilding,2827,1645,1147,2831,171,128,11
542180,CHN,Chifeng,CSWD,42.27,118.93,/WMO_Region_2_Asia/CHN_China/Nei_Mongol/CHN_Nei.Mongol_Chifeng.542180_CSWD.zip,onebuilding,1766,2028,1361,3268,165,146,26
533910,CHN,Huade,CSWD,41.9,114.0,/WMO_Region_2_Asia/CHN_China/Nei_Mongol/CHN_Nei.Mongol_Huade.533910_CSWD.zip,onebuilding,3325,1809,1252,2352,12,10,0
504340,CHN,Tulihe,CSWD,50.48,121.68,/WMO_Region_2_Asia/CHN_China/Nei_Mongol/CHN_Nei.Mongol_Tulihe.504340_CSWD.zip,onebuilding,3721,1687,1291,2012,40,9,0
509150,CHN,Dong_Ujimqin_Qi,CSWD,45.52,116.97,/WMO_Region_2_Asia/CHN_China/Nei_Mongol/CHN_Nei.Mongol_Dong.Ujimqin.Qi.509150_CSWD.zip,onebuilding,3334,1557,1147,2600,62,48,12
535020,CHN,Jartai,CSWD,39.78,105.75,/WMO_Region_2_Asia/CHN_China/Nei_Mongol/CHN_Nei.Mongol_Jartai.535020_CSWD.zip,onebuilding,1805,1923,1343,3113,245,269,62
540120,CHN,Xi_Ujimqin_Qi,CSWD,44.58,117.6,/WMO_Region_2_Asia/CHN_China/Nei_Mongol/CHN_Nei.Mongol_Xi.Ujimqin.Qi.540120_CSWD.zip,onebuilding,3278,1532,1332,2548,43,27,0
535430,CHN,Dongsheng,CSWD,39.83,109.98,/WMO_Region_2_Asia/CHN_China/Nei_Mongol/CHN_Nei.Mongol_Dongsheng.535430_CSWD.zip,onebuilding,1643,2447,1664,2954,44,8,0
540260,CHN,Jarud_Qi,CSWD,44.57,120.9,/WMO_Region_2_Asia/CHN_China/Nei_Mongol/CHN_Nei.Mongol_Jarud.Qi.540260_CSWD.zip,onebuilding,2113,2026,1105,2965,214,271,66
541020,CHN,Xilinhot,CSWD,43.95,116.12,/WMO_Region_2_Asia/CHN_China/Nei_Mongol/CHN_Nei.Mongol_Xilinhot.541020_CSWD.zip,onebuilding,3182,1586,1148,2623,116,84,21
542080,CHN,Duolun,CSWD,42.18,116.47,/WMO_Region_2_Asia/CHN_China/Nei_Mongol/CHN_Nei.Mongol_Duolun.542080_CSWD.zip,onebuilding,3019,1945,1313,2431,30,22,0
532760,CHN,Jurh,CSWD,42.4,112.9,/WMO_Region_2_Asia/CHN_China/Nei_Mongol/CHN_Nei.Mongol_Jurh.532760_CSWD.zip,onebuilding,3560,1583,1137,2362,63,47,8
538170,CHN,Guyuan,CSWD,36.0,106.27,/WMO_Region_2_Asia/CHN_China/Ningxia/CHN_Ningxia_Guyuan.538170_CSWD.zip,onebuilding,1446,2417,1814,3063,18,2,0
537230,CHN,Yanchi,CSWD,37.8,107.38,/WMO_Region_2_Asia/CHN_China/Ningxia/CHN_Ningxia_Yanchi.537230_CSWD.zip,onebuilding,1286,2379,1623,3250,128,90,4
536140,CHN,Yinchuan,CSWD,38.48,106.22,/WMO_Region_2_Asia/CHN_China/Ningxia/CHN_Ningxia_Yinchuan.536140_CSWD.zip,onebuilding,774,2477,1688,3488,196,130,7
527130,CHN,Daqaidam,CSWD,37.85,95.37,/WMO_Region_2_Asia/CHN_China/Qinghai/CHN_Qinghai_Daqaidam.527130_CSWD.zip,onebuilding,1743,2981,2102,1925,9,0,0
526020,CHN,Lenghu,CSWD,38.75,93.33,/WMO_Region_2_Asia/CHN_China/Qinghai/CHN_Qinghai_Lenghu.526020_CSWD.zip,onebuilding,2637,2658,1797,1657,10,1,0
560040,CHN,Tuotuohe,CSWD,34.22,92.43,/WMO_Region_2_Asia/CHN_China/Qinghai/CHN_Qinghai_Tuotuohe.560040_CSWD.zip,onebuilding,4636,2621,1236,267,0,0,0
560460,CHN,Darlag,CSWD,33.75,99.65,/WMO_Region_2_Asia/CHN_China/Qinghai/CHN_Qinghai_Darlag.560460_CSWD.zip,onebuilding,2094,3273,2635,758,0,0,0
560330,CHN,Madoi,CSWD,34.92,98.22,/WMO_Region_2_Asia/CHN_China/Qinghai/CHN_Qinghai_Madoi.560330_CSWD.zip,onebuilding,3857,3270,1311,322,0,0,0
529430,CHN,Xinghai,CSWD,35.58,99.98,/WMO_Region_2_Asia/CHN_China/Qinghai/CHN_Qinghai_Xinghai.529430_CSWD.zip,onebuilding,1935,2797,2434,1594,0,0,0
528360,CHN,Dulan_Us,CSWD,36.3,98.1,/WMO_Region_2_Asia/CHN_China/Qinghai/CHN_Qinghai_Dulan.Us.528360_CSWD.zip,onebuilding,1504,3010,2247,1994,5,0,0
528760,CHN,Minhe,CSWD,36.32,102.85,/WMO_Region_2_Asia/CHN_China/Qinghai/CHN_Qinghai_Minhe.528760_CSWD.zip,onebuilding,409,2301,1986,3921,79,60,4
528660,CHN,Xining,CSWD,36.72,101.75,/WMO_Region_2_Asia/CHN_China/Qinghai/CHN_Qinghai_Xining.528660_CSWD.zip,onebuilding,590,2483,2082,3554,42,9,0
527540,CHN,Gangca,CSWD,37.33,100.13,/WMO_Region_2_Asia/CHN_China/Qinghai/CHN_Qinghai_Gangca.527540_CSWD.zip,onebuilding,2933,3049,2017,761,0,0,0
561250,CHN,Nangqen,CSWD,32.2,96.48,/WMO_Region_2_Asia/CHN_China/Qinghai/CHN_Qinghai_Nangqen.561250_CSWD.zip,onebuilding,600,2884,2847,2429,0,0,0
560290,CHN,Yushu,CSWD,33.02,97.02,/WMO_Region_2_Asia/CHN_China/Qinghai/CHN_Qinghai_Yushu.560290_CSWD.zip,onebuilding,609,2906,2735,2510,0,0,0
528180,CHN,Golmud,CSWD,36.42,94.9,/WMO_Region_2_Asia/CHN_China/Qinghai/CHN_Qinghai_Golmud.528180_CSWD.zip,onebuilding,1259,2898,2104,2470,23,6,0
560210,CHN,Qumarleb,CSWD,34.13,95.78,/WMO_Region_2_Asia/CHN_China/Qinghai/CHN_Qinghai_Qumarleb.560210_CSWD.zip,onebuilding,2670,3438,2026,626,0,0,0
572450,CHN,Ankangan,CSWD,32.72,109.03,/WMO_Region_2_Asia/CHN_China/Shaanxi/CHN_Shaanxi_Ankangan.572450_CSWD.zip,onebuilding,7,587,2161,4394,568,764,279
539420,CHN,Luochuan,CSWD,35.82,109.5,/WMO_Region_2_Asia/CHN_China/Shaanxi/CHN_Shaanxi_Luochuan.539420_CSWD.zip,onebuilding,454,2261,1720,4151,105,62,7
538450,CHN,Yanan,CSWD,36.6,109.5,/WMO_Region_2_Asia/CHN_China/Shaanxi/CHN_Shaanxi_Yanan.538450_CSWD.zip,onebuilding,499,1732,1724,4223,247,287,48
537250,CHN,Dingbian,CSWD,37.58,107.58,/WMO_Region_2_Asia/CHN_China/Shaanxi/CHN_Shaanxi_Dingbian.537250_CSWD.zip,onebuilding,1369,2157,1551,3539,102,41,1
537540,CHN,Suide,CSWD,37.5,110.22,/WMO_Region_2_Asia/CHN_China/Shaanxi/CHN_Shaanxi_Suide.537540_CSWD.zip,onebuilding,773,2260,1612,3568,210,250,87
536460,CHN,Yulin,CSWD,38.23,109.7,/WMO_Region_2_Asia/CHN_China/Shaanxi/CHN_Shaanxi_Yulin.536460_CSWD.zip,onebuilding,976,2298,1601,3476,224,183,2
571270,CHN,Hanzhong,CSWD,33.07,107.03,/WMO_Region_2_Asia/CHN_China/Shaanxi/CHN_Shaanxi_Hanzhong.571270_CSWD.zip,onebuilding,7,679,2344,4616,510,514,90
570360,CHN,Xian,CSWD,34.3,108.93,/WMO_Region_2_Asia/CHN_China/Shaanxi/CHN_Shaanxi_Xian.570360_CSWD.zip,onebuilding,54,1409,1804,4272,419,588,214
548080,CHN,Chaoyang,CSWD,36.23,115.67,/WMO_Region_2_Asia/CHN_China/Shandong/CHN_Shandong_Chaoyang.548080_CSWD.zip,onebuilding,400,2139,1593,3364,452,528,284
548230,CHN,Jinan,CSWD,36.6,117.05,/WMO_Region_2_Asia/CHN_China/Shandong/CHN_Shandong_Jinan.548230_CSWD.zip,onebuilding,449,1860,1552,3511,447,672,269
548430,CHN,Weifang,CSWD,36.75,119.18,/WMO_Region_2_Asia/CHN_China/Shandong/CHN_Shandong_Weifang.548430_CSWD.zip,onebuilding,899,2104,1369,3534,306,426,122
547760,CHN,Chengshantou,CSWD,37.4,122.68,/WMO_Region_2_Asia/CHN_China/Shandong/CHN_Shandong_Chengshantou.547760_CSWD.zip,onebuilding,1748,2257,1492,3141,86,36,0
549360,CHN,Juxian,CSWD,35.58,118.83,/WMO_Region_2_Asia/CHN_China/Shandong/CHN_Shandong_Juxian.549360_CSWD.zip,onebuilding,252,2232,1713,3578,419,491,75
549160,CHN,Yanzhou,CSWD,35.57,116.85,/WMO_Region_2_Asia/CHN_China/Shandong/CHN_Shandong_Yanzhou.549160_CSWD.zip,onebuilding,254,2098,1570,3632,421,567,218
547250,CHN,Huimin_Xian,CSWD,37.48,117.53,/WMO_Region_2_Asia/CHN_China/Shandong/CHN_Shandong_Huimin.Xian.547250_CSWD.zip,onebuilding,452,2360,1454,3294,410,589,201
547530,CHN,Longkou,CSWD,37.62,120.32,/WMO_Region_2_Asia/CHN_China/Shandong/CHN_Shandong_Longkou.547530_CSWD.zip,onebuilding,712,2409,1347,3715,301,259,17
583620,CHN,Shanghai,CSWD,31.4,121.45,/WMO_Region_2_Asia/CHN_China/Shanghai/CHN_Shanghai_Shanghai.583620_CSWD.zip,onebuilding,120,1199,1788,4209,428,799,217
534870,CHN,Datong,CSWD,40.1,113.33,/WMO_Region_2_Asia/CHN_China/Shanxi/CHN_Shanxi_Datong.534870_CSWD.zip,onebuilding,1699,2058,1397,3423,112,59,12
537720,CHN,Taiyuan,CSWD,37.78,112.55,/WMO_Region_2_Asia/CHN_China/Shanxi/CHN_Shanxi_Taiyuan.537720_CSWD.zip,onebuilding,507,2218,1661,3946,221,185,22
539590,CHN,Yuncheng,CSWD,35.05,111.05,/WMO_Region_2_Asia/CHN_China/Shanxi/CHN_Shanxi_Yuncheng.539590_CSWD.zip,onebuilding,282,1883,1572,3926,376,496,225
539630,CHN,Houma,CSWD,35.65,111.37,/WMO_Region_2_Asia/CHN_China/Shanxi/CHN_Shanxi_Houma.539630_CSWD.zip,onebuilding,88,1733,1920,3930,369,517,203
536730,CHN,Yuanping,CSWD,38.73,112.72,/WMO_Region_2_Asia/CHN_China/Shanxi/CHN_Shanxi_Yuanping.536730_CSWD.zip,onebuilding,877,2184,1554,3650,254,212,29
537870,CHN,Yushe,CSWD,37.07,112.98,/WMO_Region_2_Asia/CHN_China/Shanxi/CHN_Shanxi_Yushe.537870_CSWD.zip,onebuilding,535,2326,1703,3833,187,148,28
538630,CHN,Jiexiu,CSWD,37.03,111.92,/WMO_Region_2_Asia/CHN_China/Shanxi/CHN_Shanxi_Jiexiu.538630_CSWD.zip,onebuilding,695,1937,1683,3818,291,279,57
561720,CHN,Barkam,CSWD,31.9,102.23,/WMO_Region_2_Asia/CHN_China/Sichuan/CHN_Sichuan_Barkam.561720_CSWD.zip,onebuilding,40,1611,2723,4324,43,19,0
564620,CHN,Jiulong,CSWD,29.0,101.5,/WMO_Region_2_Asia/CHN_China/Sichuan/CHN_Sichuan_Jiulong.564620_CSWD.zip,onebuilding,339,2361,2613,3445,2,0,0
574110,CHN,Nanchong,CSWD,30.78,106.1,/WMO_Region_2_Asia/CHN_China/Sichuan/CHN_Sichuan_Nanchong.574110_CSWD.zip,onebuilding,0,91,1535,5180,653,869,432
562940,CHN,Chengdu,CSWD,30.67,104.02,/WMO_Region_2_Asia/CHN_China/Sichuan/CHN_Sichuan_Chengdu.562940_CSWD.zip,onebuilding,0,143,1749,5474,595,648,151
563860,CHN,Leshan,CSWD,29.57,103.75,/WMO_Region_2_Asia/CHN_China/Sichuan/CHN_Sichuan_Leshan.563860_CSWD.zip,onebuilding,0,22,1374,5835,607,718,204
561820,CHN,Songpan,CSWD,32.65,103.57,/WMO_Region_2_Asia/CHN_China/Sichuan/CHN_Sichuan_Songpan.561820_CSWD.zip,onebuilding,353,2227,2990,3185,5,0,0
561460,CHN,Garze,CSWD,31.62,100.0,/WMO_Region_2_Asia/CHN_China/Sichuan/CHN_Sichuan_Garze.561460_CSWD.zip,onebuilding,307,2775,2733,2945,0,0,0
562570,CHN,Litang,CSWD,30.0,100.27,/WMO_Region_2_Asia/CHN_China/Sichuan/CHN_Sichuan_Litang.562570_CSWD.zip,onebuilding,824,3297,2885,1754,0,0,0
572370,CHN,Wanyuan,CSWD,32.07,108.03,/WMO_Region_2_Asia/CHN_China/Sichuan/CHN_Sichuan_Wanyuan.572370_CSWD.zip,onebuilding,154,720,2247,4774,385,366,114
561730,CHN,Hongyuan,CSWD,32.8,102.55,/WMO_Region_2_Asia/CHN_China/Sichuan/CHN_Sichuan_Hongyuan.561730_CSWD.zip,onebuilding,1490,3419,2569,1282,0,0,0
576020,CHN,Luzhou,CSWD,28.88,105.43,/WMO_Region_2_Asia/CHN_China/Sichuan/CHN_Sichuan_Luzhou.576020_CSWD.zip,onebuilding,0,35,1041,5890,579,805,410
565710,CHN,Xichang,CSWD,27.9,102.27,/WMO_Region_2_Asia/CHN_China/Sichuan/CHN_Sichuan_Xichang.565710_CSWD.zip,onebuilding,0,132,1394,6651,321,253,9
566710,CHN,Huili,CSWD,26.65,102.25,/WMO_Region_2_Asia/CHN_China/Sichuan/CHN_Sichuan_Huili.566710_CSWD.zip,onebuilding,0,53,1930,6669,102,6,0
561960,CHN,Mianyang,CSWD,31.45,104.73,/WMO_Region_2_Asia/CHN_China/Sichuan/CHN_Sichuan_Mianyang.561960_CSWD.zip,onebuilding,0,82,2052,5065,683,722,156
564920,CHN,Yibin,CSWD,28.8,104.6,/WMO_Region_2_Asia/CHN_China/Sichuan/CHN_Sichuan_Yibin.564920_CSWD.zip,onebuilding,0,11,769,6050,684,857,389
545270,CHN,Tianjin,CSWD,39.08,117.07,/WMO_Region_2_Asia/CHN_China/Tianjin/CHN_Tianjin_Tianjin.545270_CSWD.zip,onebuilding,512,1776,1543,3701,481,568,179
555910,CHN,Lhasa,CSWD,29.67,91.13,/WMO_Region_2_Asia/CHN_China/Tibet/CHN_Tibet_Lhasa.555910_CSWD.zip,onebuilding,338,2265,2722,3435,0,0,0
563120,CHN,Nyingchi,CSWD,29.67,94.33,/WMO_Region_2_Asia/CHN_China/Tibet/CHN_Tibet_Nyingchi.563120_CSWD.zip,onebuilding,128,1991,2935,3705,1,0,0
561370,CHN,Qamdo,CSWD,31.15,97.17,/WMO_Region_2_Asia/CHN_China/Tibet/CHN_Tibet_Qamdo.561370_CSWD.zip,onebuilding,75,2044,2929,3704,8,0,0
516280,CHN,Aksu,CSWD,41.17,80.23,/WMO_Region_2_Asia/CHN_China/Xinjiang/CHN_Xinjiang_Aksu.516280_CSWD.zip,onebuilding,388,2127,1617,3994,278,312,44
513340,CHN,Jinghe,CSWD,44.62,82.9,/WMO_Region_2_Asia/CHN_China/Xinjiang/CHN_Xinjiang_Jinghe.513340_CSWD.zip,onebuilding,1495,1536,1186,3707,310,378,148
511330,CHN,Tacheng,CSWD,46.73,83.0,/WMO_Region_2_Asia/CHN_China/Xinjiang/CHN_Xinjiang_Tacheng.511330_CSWD.zip,onebuilding,1357,2348,1433,3126,192,264,40
510760,CHN,Altay,CSWD,47.73,88.08,/WMO_Region_2_Asia/CHN_China/Xinjiang/CHN_Xinjiang_Altay.510760_CSWD.zip,onebuilding,2184,1917,1421,3007,110,92,29
512430,CHN,Karamay,CSWD,45.62,84.85,/WMO_Region_2_Asia/CHN_China/Xinjiang/CHN_Xinjiang_Karamay.512430_CSWD.zip,onebuilding,1363,2274,1349,2762,293,436,283
517650,CHN,Tikanlik,CSWD,40.63,87.7,/WMO_Region_2_Asia/CHN_China/Xinjiang/CHN_Xinjiang_Tikanlik.517650_CSWD.zip,onebuilding,535,2243,1458,3477,274,416,357
517160,CHN,Bachu,CSWD,39.8,78.57,/WMO_Region_2_Asia/CHN_China/Xinjiang/CHN_Xinjiang_Bachu.517160_CSWD.zip,onebuilding,221,2074,1476,3996,327,482,184
517090,CHN,Kashi,CSWD,39.47,75.98,/WMO_Region_2_Asia/CHN_China/Xinjiang/CHN_Xinjiang_Kashi.517090_CSWD.zip,onebuilding,131,2331,1560,4068,297,331,42
515730,CHN,Turpan,CSWD,42.93,89.2,/WMO_Region_2_Asia/CHN_China/Xinjiang/CHN_Xinjiang_Turpan.515730_CSWD.zip,onebuilding,55,1873,1338,3394,475,678,947
510870,CHN,Fuyun,CSWD,46.98,89.52,/WMO_Region_2_Asia/CHN_China/Xinjiang/CHN_Xinjiang_Fuyun.510870_CSWD.zip,onebuilding,2242,1862,1321,3114,109,97,15
516440,CHN,Kuqa,CSWD,41.72,83.07,/WMO_Region_2_Asia/CHN_China/Xinjiang/CHN_Xinjiang_Kuqa.516440_CSWD.zip,onebuilding,392,2309,1567,3842,274,314,62
514630,CHN,Urumqi,CSWD,43.78,87.65,/WMO_Region_2_Asia/CHN_China/Xinjiang/CHN_Xinjiang_Urumqi.514630_CSWD.zip,onebuilding,1625,2115,1331,3278,194,188,29
522030,CHN,Hami,CSWD,42.82,93.52,/WMO_Region_2_Asia/CHN_China/Xinjiang/CHN_Xinjiang_Hami.522030_CSWD.zip,onebuilding,926,1941,1355,3633,303,413,189
518390,CHN,Minfeng,CSWD,37.07,82.72,/WMO_Region_2_Asia/CHN_China/Xinjiang/CHN_Xinjiang_Minfeng.518390_CSWD.zip,onebuilding,192,2231,1602,3923,254,414,144
513460,CHN,Wusu,CSWD,44.43,84.67,/WMO_Region_2_Asia/CHN_China/Xinjiang/CHN_Xinjiang_Wusu.513460_CSWD.zip,onebuilding,1639,1723,1178,3383,322,350,165
511560,CHN,Hoboksar,CSWD,46.78,85.72,/WMO_Region_2_Asia/CHN_China/Xinjiang/CHN_Xinjiang_Hoboksar.511560_CSWD.zip,onebuilding,1518,2699,1664,2820,38,21,0
517770,CHN,Ruoqiang,CSWD,39.03,88.17,/WMO_Region_2_Asia/CHN_China/Xinjiang/CHN_Xinjiang_Ruoqiang.517770_CSWD.zip,onebuilding,840,2153,1374,3376,276,364,377
515670,CHN,Yanqi,CSWD,42.08,86.5,/WMO_Region_2_Asia/CHN_China/Xinjiang/CHN_Xinjiang_Yanqi.515670_CSWD.zip,onebuilding,617,2269,1539,3822,259,235,19
518280,CHN,Hotan,CSWD,37.13,79.93,/WMO_Region_2_Asia/CHN_China/Xinjiang/CHN_Xinjiang_Hotan.518280_CSWD.zip,onebuilding,166,2267,1470,4127,326,344,60
518110,CHN,Shache,CSWD,38.43,77.27,/WMO_Region_2_Asia/CHN_China/Xinjiang/CHN_Xinjiang_Shache.518110_CSWD.zip,onebuilding,166,2015,1676,3988,338,496,81
514310,CHN,Yining,CSWD,43.95,81.33,/WMO_Region_2_Asia/CHN_China/Xinjiang/CHN_Xinjiang_Yining.514310_CSWD.zip,onebuilding,553,2286,1540,3892,206,241,42
567680,CHN,Chuxiong,CSWD,25.03,101.55,/WMO_Region_2_Asia/CHN_China/Yunnan/CHN_Yunnan_Chuxiong.567680_CSWD.zip,onebuilding,0,21,1292,7273,149,25,0
566510,CHN,Lijiang,CSWD,26.87,100.22,/WMO_Region_2_Asia/CHN_China/Yunnan/CHN_Yunnan_Lijiang.566510_CSWD.zip,onebuilding,76,1486,2561,4637,0,0,0
569640,CHN,Simao,CSWD,22.78,100.97,/WMO_Region_2_Asia/CHN_China/Yunnan/CHN_Yunnan_Simao.569640_CSWD.zip,onebuilding,0,1,186,8079,396,98,0
564440,CHN,Deqen,CSWD,28.48,98.92,/WMO_Region_2_Asia/CHN_China/Yunnan/CHN_Yunnan_Deqen.564440_CSWD.zip,onebuilding,251,2863,2860,2786,0,0,0
569510,CHN,Lincang,CSWD,23.88,100.08,/WMO_Region_2_Asia/CHN_China/Yunnan/CHN_Yunnan_Lincang.569510_CSWD.zip,onebuilding,0,7,692,7723,263,75,0
567390,CHN,Tengchong,CSWD,25.02,98.5,/WMO_Region_2_Asia/CHN_China/Yunnan/CHN_Yunnan_Tengchong.567390_CSWD.zip,onebuilding,0,21,1656,7051,27,5,0
567780,CHN,Kunming,CSWD,25.02,102.68,/WMO_Region_2_Asia/CHN_China/Yunnan/CHN_Yunnan_Kunming.567780_CSWD.zip,onebuilding,0,111,1545,7096,8,0,0
569690,CHN,Mengla,CSWD,21.48,101.57,/WMO_Region_2_Asia/CHN_China/Yunnan/CHN_Yunnan_Mengla.569690_CSWD.zip,onebuilding,0,0,12,5559,1588,1405,196
569660,CHN,Yuanjiang,CSWD,23.6,101.98,/WMO_Region_2_Asia/CHN_China/Yunnan/CHN_Yunnan_Yuanjiang.569660_CSWD.zip,onebuilding,0,19,435,4514,1097,1836,859
569540,CHN,Lancang,CSWD,22.57,99.93,/WMO_Region_2_Asia/CHN_China/Yunnan/CHN_Yunnan_Lancang.569540_CSWD.zip,onebuilding,0,0,372,7080,706,571,31
569850,CHN,Mengzi,CSWD,23.38,103.38,/WMO_Region_2_Asia/CHN_China/Yunnan/CHN_Yunnan_Mengzi.569850_CSWD.zip,onebuilding,0,143,1362,6908,287,60,0
584770,CHN,Dinghai,CSWD,30.03,122.1,/WMO_Region_2_Asia/CHN_China/Zhejiang/CHN_Zhejiang_Dinghai.584770_CSWD.zip,onebuilding,50,1046,1811,4389,537,801,126
586650,CHN,Hongjia,CSWD,28.62,121.42,/WMO_Region_2_Asia/CHN_China/Zhejiang/CHN_Zhejiang_Hongjia.586650_CSWD.zip,onebuilding,33,547,1672,4481,555,1200,272
586590,CHN,Wenzhou,CSWD,28.03,120.65,/WMO_Region_2_Asia/CHN_China/Zhejiang/CHN_Zhejiang_Wenzhou.586590_CSWD.zip,onebuilding,2,296,1315,4812,668,1274,393
584570,CHN,Hangzhou,CSWD,30.23,120.17,/WMO_Region_2_Asia/CHN_China/Zhejiang/CHN_Zhejiang_Hangzhou.584570_CSWD.zip,onebuilding,13,663,1978,4293,505,928,380
586330,CHN,Quxian,CSWD,29.0,118.9,/WMO_Region_2_Asia/CHN_China/Zhejiang/CHN_Zhejiang_Quxian.586330_CSWD.zip,onebuilding,18,795,1938,4020,547,880,562
434500,LKA,Bandaranaike_Intl_AP_C,SWERA,7.17,79.88,/WMO_Region_2_Asia/LKA_Sri_Lanka/Basnahira_Western/LKA_Basnahira.Western_Bandaranaike.Intl.AP-Katunayake.Intl.AP.434500_SWERA.zip,onebuilding,0,0,7,1798,2550,4149,256
434670,LKA,Colombo_Intl_AP_Ratmal,SWERA,6.82,79.88,/WMO_Region_2_Asia/LKA_Sri_Lanka/Basnahira_Western/LKA_Basnahira.Western_Colombo.Intl.AP-Ratmalana.Intl.AP.434670_SWERA.zip,onebuilding,0,0,1,1049,2139,5063,508
434970,LKA,Hambantota,SWERA,6.12,81.13,/WMO_Region_2_Asia/LKA_Sri_Lanka/Dakunu_Southern/LKA_Dakunu.Southern_Hambantota.434970_SWERA.zip,onebuilding,0,6,11,4644,2245,1808,46
434730,LKA,Nuwara_Eliya,SWERA,6.97,80.77,/WMO_Region_2_Asia/LKA_Sri_Lanka/Madhyama_Central/LKA_Madhyama.Central_Nuwara.Eliya.434730_SWERA.zip,onebuilding,0,53,900,7794,4,5,4
434360,LKA,Batticaloa,SWERA,7.72,81.7,/WMO_Region_2_Asia/LKA_Sri_Lanka/N%C3%A6genahira_Eastern/LKA_Negenahira.Eastern_Batticaloa.434360_SWERA.zip,onebuilding,0,0,0,1171,1632,4867,1090
434180,LKA,Trincomalee,SWERA,8.58,81.25,/WMO_Region_2_Asia/LKA_Sri_Lanka/N%C3%A6genahira_Eastern/LKA_Negenahira.Eastern_Trincomalee.434180_SWERA.zip,onebuilding,4,3,6,2757,1974,3164,852
434210,LKA,Anuradhapura,SWERA,8.33,80.42,/WMO_Region_2_Asia/LKA_Sri_Lanka/Uturum%C3%A6da_North_Central/LKA_Uturumeda.North.Central_Anuradhapura.434210_SWERA.zip,onebuilding,0,0,0,641,2170,4547,1402
434000,LKA,Kankesanturai_SLNS_Utt,SWERA,9.8,80.07,/WMO_Region_2_Asia/LKA_Sri_Lanka/Uturu_Northern/LKA_Uturu.Northern_Kankasanturai-SLNS.Uttara.434000_SWERA.zip,onebuilding,0,0,1,1340,2248,4295,876
434240,LKA,Puttalam,SWERA,8.03,79.83,/WMO_Region_2_Asia/LKA_Sri_Lanka/Vayamba_North_Western/LKA_Vayamba.North.Western_Puttalam.434240_SWERA.zip,onebuilding,0,0,0,1990,2244,3908,618
433330,IND,Port_Blair,ISHRAE2014,11.67,92.72,/WMO_Region_2_Asia/IND_India/AN_Andaman_and_Nicobar_Islands/IND_AN_Port.Blair.433330_ISHRAE2014.zip,onebuilding,0,0,0,892,2249,5076,543
432130,IND,Kurnool,ISHRAE2014,15.8,78.07,/WMO_Region_2_Asia/IND_India/AP_Andhra_Pradesh/IND_AP_Kurnool.432130_ISHRAE2014.zip,onebuilding,0,0,0,2093,1605,3032,2030
432450,IND,Nellore,ISHRAE2014,14.45,79.98,/WMO_Region_2_Asia/IND_India/AP_Andhra_Pradesh/IND_AP_Nellore.432450_ISHRAE2014.zip,onebuilding,0,0,0,1159,1198,3424,2979
431500,IND,Vishakhapatnam,ISHRAE2014,17.7,83.3,/WMO_Region_2_Asia/IND_India/AP_Andhra_Pradesh/IND_AP_Vishakhapatnam.431500_ISHRAE2014.zip,onebuilding,0,0,0,2706,1367,3161,1526
423140,IND,Dibrugarh_AP,ISHRAE2014,27.48,95.02,/WMO_Region_2_Asia/IND_India/AS_Assam/IND_AS_Dibrugarh.AP.423140_ISHRAE2014.zip,onebuilding,0,2,52,4989,975,2001,741
424230,IND,Jorhat,ISHRAE2014,26.9,94.2,/WMO_Region_2_Asia/IND_India/AS_Assam/IND_AS_Jorhat.424230_ISHRAE2014.zip,onebuilding,0,0,88,4803,882,2067,920
424150,IND,Tezpur,ISHRAE2014,26.62,92.78,/WMO_Region_2_Asia/IND_India/AS_Assam/IND_AS_Tezpur.424150_ISHRAE2014.zip,onebuilding,0,0,19,4374,704,2300,1363
424100,IND,Guwahati-Bordoloi_Intl_AP,ISHRAE2014,26.1,91.58,/WMO_Region_2_Asia/IND_India/AS_Assam/IND_AS_Guwahati-Bordoloi.Intl.AP.424100_ISHRAE2014.zip,onebuilding,0,0,9,4143,711,2582,1315
424980,IND,Bhagalpur,ISHRAE2014,25.23,86.95,/WMO_Region_2_Asia/IND_India/BR_Bihar/IND_BR_Bhagalpur.424980_ISHRAE2014.zip,onebuilding,0,0,0,3087,579,1989,3105
424920,IND,Patna-Jayaprakash_AP,ISHRAE2014,25.6,85.1,/WMO_Region_2_Asia/IND_India/BR_Bihar/IND_BR_Patna-Jayaprakash.AP.424920_ISHRAE2014.zip,onebuilding,0,0,22,3749,700,2206,2083
423820,IND,Raxaul_AP,ISHRAE2014,26.98,84.85,/WMO_Region_2_Asia/IND_India/BR_Bihar/IND_BR_Raxaul.AP.423820_ISHRAE2014.zip,onebuilding,0,0,44,4020,741,2247,1708
430410,IND,Jagdalpur,ISHRAE2014,19.08,82.03,/WMO_Region_2_Asia/IND_India/CT_Chhattisgarh/IND_CT_Jagdalpur.430410_ISHRAE2014.zip,onebuilding,0,0,9,4240,1846,1875,790
428750,IND,Raipur,ISHRAE2014,21.23,81.65,/WMO_Region_2_Asia/IND_India/CT_Chhattisgarh/IND_CT_Raipur.428750_ISHRAE2014.zip,onebuilding,0,0,0,3448,1191,2609,1512
421820,IND,New_Delhi-Safdarjung_AP,ISHRAE2014,28.58,77.2,/WMO_Region_2_Asia/IND_India/DL_Delhi/IND_DL_New.Delhi-Safdarjung.AP.421820_ISHRAE2014.zip,onebuilding,0,0,107,3853,537,1638,2625
431920,IND,Panjim,ISHRAE2014,15.48,73.82,/WMO_Region_2_Asia/IND_India/GA_Goa/IND_GA_Panjim.431920_ISHRAE2014.zip,onebuilding,0,0,0,1975,1794,3839,1152
426470,IND,Ahmedabad_Patel_Intl_AP,ISHRAE2014,23.07,72.63,/WMO_Region_2_Asia/IND_India/GJ_Gujarat/IND_GJ_Ahmedabad-Patel.Intl.AP.426470_ISHRAE2014.zip,onebuilding,0,0,21,3235,967,2341,2196
427340,IND,Jamnagar,ISHRAE2014,22.45,70.08,/WMO_Region_2_Asia/IND_India/GJ_Gujarat/IND_GJ_Jamnagar.427340_ISHRAE2014.zip,onebuilding,0,0,153,4776,1608,1554,669
428400,IND,Surat,ISHRAE2014,21.2,72.83,/WMO_Region_2_Asia/IND_India/GJ_Gujarat/IND_GJ_Surat.428400_ISHRAE2014.zip,onebuilding,0,0,0,2550,865,3647,1698
426340,IND,Bhuj,ISHRAE2014,23.25,69.67,/WMO_Region_2_Asia/IND_India/GJ_Gujarat/IND_GJ_Bhuj.426340_ISHRAE2014.zip,onebuilding,0,0,9,2984,1236,2804,1727
427370,IND,Rajkot_AP,ISHRAE2014,22.3,70.78,/WMO_Region_2_Asia/IND_India/GJ_Gujarat/IND_GJ_Rajkot.AP.427370_ISHRAE2014.zip,onebuilding,0,0,67,4062,1310,1858,1463
429090,IND,Veraval,ISHRAE2014,20.9,70.37,/WMO_Region_2_Asia/IND_India/GJ_Gujarat/IND_GJ_Veraval.429090_ISHRAE2014.zip,onebuilding,0,0,32,3559,1840,2572,757
421310,IND,Hissar,ISHRAE2014,29.17,75.73,/WMO_Region_2_Asia/IND_India/HR_Haryana/IND_HR_Hissar.421310_ISHRAE2014.zip,onebuilding,0,0,72,3845,470,1473,2900
427010,IND,Ranchi-Munda_Intl_AP,ISHRAE2014,23.32,85.32,/WMO_Region_2_Asia/IND_India/JH_Jharkhand/IND_JH_Ranchi-Munda.Intl.AP.427010_ISHRAE2014.zip,onebuilding,0,1,138,6060,1151,948,462
420270,IND,Srinagar,ISHRAE2014,34.08,74.83,/WMO_Region_2_Asia/IND_India/JK_Jammu_and_Kashmir/IND_JK_Srinagar.420270_ISHRAE2014.zip,onebuilding,10,107,2721,4993,421,454,54
431980,IND,Belgaum-Sambre_AP,ISHRAE2014,15.85,74.62,/WMO_Region_2_Asia/IND_India/KA_Karnataka/IND_KA_Belgaum-Sambre.AP.431980_ISHRAE2014.zip,onebuilding,0,0,5,7235,667,556,297
432330,IND,Chitradurga,ISHRAE2014,14.23,76.43,/WMO_Region_2_Asia/IND_India/KA_Karnataka/IND_KA_Chitradurga.432330_ISHRAE2014.zip,onebuilding,0,0,0,6333,963,1032,432
432840,IND,Mangaluru,ISHRAE2014,12.92,74.88,/WMO_Region_2_Asia/IND_India/KA_Karnataka/IND_KA_Mangaluru.432840_ISHRAE2014.zip,onebuilding,0,0,0,2828,2452,3035,445
432950,IND,Bengaluru,ISHRAE2014,12.97,77.58,/WMO_Region_2_Asia/IND_India/KA_Karnataka/IND_KA_Bengaluru.432950_ISHRAE2014.zip,onebuilding,0,0,0,6115,1395,1010,240
433710,IND,Thiruvananthapuram,ISHRAE2014,8.48,76.95,/WMO_Region_2_Asia/IND_India/KL_Kerala/IND_KL_Thiruvananthapuram.433710_ISHRAE2014.zip,onebuilding,0,0,0,205,1548,5613,1394
429340,IND,Akola_AP,ISHRAE2014,20.7,77.07,/WMO_Region_2_Asia/IND_India/MH_Maharashtra/IND_MH_Akola.AP.429340_ISHRAE2014.zip,onebuilding,0,0,0,3690,1303,2043,1724
428670,IND,Nagpur-Ambedkar_Intl_AP,ISHRAE2014,21.1,79.05,/WMO_Region_2_Asia/IND_India/MH_Maharashtra/IND_MH_Nagpur-Ambedkar.Intl.AP.428670_ISHRAE2014.zip,onebuilding,0,0,13,4090,1280,1873,1504
431100,IND,Ratnagiri,ISHRAE2014,16.98,73.33,/WMO_Region_2_Asia/IND_India/MH_Maharashtra/IND_MH_Ratnagiri.431100_ISHRAE2014.zip,onebuilding,0,0,0,2262,1869,3940,689
430140,IND,Aurangabad_AP,ISHRAE2014,19.85,75.4,/WMO_Region_2_Asia/IND_India/MH_Maharashtra/IND_MH_Aurangabad.AP.430140_ISHRAE2014.zip,onebuilding,0,0,0,5317,1176,1308,959
430630,IND,Pune_AP,ISHRAE2014,18.53,73.85,/WMO_Region_2_Asia/IND_India/MH_Maharashtra/IND_MH_Pune.AP.430630_ISHRAE2014.zip,onebuilding,0,0,3,5536,1327,1260,634
431170,IND,Solapur,ISHRAE2014,17.67,75.9,/WMO_Region_2_Asia/IND_India/MH_Maharashtra/IND_MH_Solapur.431170_ISHRAE2014.zip,onebuilding,0,0,0,2447,1660,2930,1723
430030,IND,Mumbai-Andheri_RS,ISHRAE2014,19.12,72.85,/WMO_Region_2_Asia/IND_India/MH_Maharashtra/IND_MH_Mumbai-Andheri.RS.430030_ISHRAE2014.zip,onebuilding,0,0,0,1871,889,4057,1943
425160,IND,Shillong,ISHRAE2014,25.57,91.88,/WMO_Region_2_Asia/IND_India/ML_Meghalaya/IND_ML_Shillong.425160_ISHRAE2014.zip,onebuilding,0,122,2154,6476,8,0,0
426230,IND,Imphal,ISHRAE2014,24.67,93.9,/WMO_Region_2_Asia/IND_India/MN_Manipur/IND_MN_Imphal.426230_ISHRAE2014.zip,onebuilding,0,0,394,6197,1318,825,26
426670,IND,Bhopal-Bhoj_AP,ISHRAE2014,23.28,77.35,/WMO_Region_2_Asia/IND_India/MP_Madhya_Pradesh/IND_MP_Bhopal-Bhoj.AP.426670_ISHRAE2014.zip,onebuilding,0,0,156,5378,971,1326,929
427540,IND,Indore-Holkar_AP,ISHRAE2014,22.72,75.8,/WMO_Region_2_Asia/IND_India/MP_Madhya_Pradesh/IND_MP_Indore-Holkar.AP.427540_ISHRAE2014.zip,onebuilding,0,6,263,6275,622,861,733
426750,IND,Jabalpur,ISHRAE2014,23.2,79.95,/WMO_Region_2_Asia/IND_India/MP_Madhya_Pradesh/IND_MP_Jabalpur.426750_ISHRAE2014.zip,onebuilding,0,0,13,4019,1292,2205,1231
423610,IND,Gwalior,ISHRAE2014,26.23,78.25,/WMO_Region_2_Asia/IND_India/MP_Madhya_Pradesh/IND_MP_Gwalior.423610_ISHRAE2014.zip,onebuilding,0,0,192,3699,677,1834,2358
429710,IND,Bhubaneswar-Patnaik_Intl_AP,ISHRAE2014,20.25,85.83,/WMO_Region_2_Asia/IND_India/OR_Odisha/IND_OR_Bhubaneshwar-Patnaik.Intl.AP.429710_ISHRAE2014.zip,onebuilding,0,0,0,3097,1376,2866,1421
420710,IND,Amritsar,ISHRAE2014,31.63,74.87,/WMO_Region_2_Asia/IND_India/PB_Punjab/IND_PB_Amritsar.420710_ISHRAE2014.zip,onebuilding,0,3,363,4535,569,1351,1939
424350,IND,Barmer,ISHRAE2014,25.75,71.38,/WMO_Region_2_Asia/IND_India/RJ_Rajasthan/IND_RJ_Barmer.424350_ISHRAE2014.zip,onebuilding,0,0,40,3484,858,2004,2374
423480,IND,Jaipur_Intl_AP,ISHRAE2014,26.82,75.8,/WMO_Region_2_Asia/IND_India/RJ_Rajasthan/IND_RJ_Jaipur.Intl.AP.423480_ISHRAE2014.zip,onebuilding,0,0,101,4000,775,2079,1805
423390,IND,Jodhpur,ISHRAE2014,26.3,73.02,/WMO_Region_2_Asia/IND_India/RJ_Rajasthan/IND_RJ_Jodhpur.423390_ISHRAE2014.zip,onebuilding,0,0,36,3342,700,1996,2686
421650,IND,Bikaner,ISHRAE2014,28.0,73.3,/WMO_Region_2_Asia/IND_India/RJ_Rajasthan/IND_RJ_Bikaner.421650_ISHRAE2014.zip,onebuilding,0,0,191,3613,581,1601,2774
423280,IND,Jaisalmer,ISHRAE2014,26.9,70.92,/WMO_Region_2_Asia/IND_India/RJ_Rajasthan/IND_RJ_Jaisalmer.423280_ISHRAE2014.zip,onebuilding,0,5,162,3804,760,1543,2486
424520,IND,Kota_AP,ISHRAE2014,25.15,75.85,/WMO_Region_2_Asia/IND_India/RJ_Rajasthan/IND_RJ_Kota.AP.424520_ISHRAE2014.zip,onebuilding,0,0,40,4014,967,1955,1784
431280,IND,Hyderabad-Gandhi_Intl_AP,ISHRAE2014,17.45,78.47,/WMO_Region_2_Asia/IND_India/TG_Telangana/IND_TG_Hyderabad-Gandhi.Intl.AP.431280_ISHRAE2014.zip,onebuilding,0,0,0,4993,1367,1540,860
430860,IND,Ramagundam_RS,ISHRAE2014,18.77,79.43,/WMO_Region_2_Asia/IND_India/TG_Telangana/IND_TG_Ramagundam.RS.430860_ISHRAE2014.zip,onebuilding,0,0,0,2122,1027,3112,2499
432790,IND,Chennai_Intl_AP,ISHRAE2014,13.0,80.18,/WMO_Region_2_Asia/IND_India/TN_Tamil_Nadu/IND_TN_Chennai.Intl.AP.432790_ISHRAE2014.zip,onebuilding,0,0,0,865,1185,3704,3006
433390,IND,Kodaikanal,ISHRAE2014,10.23,77.47,/WMO_Region_2_Asia/IND_India/TN_Tamil_Nadu/IND_TN_Kodaikanal.433390_ISHRAE2014.zip,onebuilding,0,0,252,8508,0,0,0
433440,IND,Tiruchchirapalli_Intl_AP,ISHRAE2014,10.77,78.72,/WMO_Region_2_Asia/IND_India/TN_Tamil_Nadu/IND_TN_Tiruchirapalli.Intl.AP.433440_ISHRAE2014.zip,onebuilding,0,0,0,1131,1627,3486,2516
424750,IND,Allahabad-Bamrauli_AP,ISHRAE2014,25.45,81.73,/WMO_Region_2_Asia/IND_India/UP_Uttar_Pradesh/IND_UP_Allahabad-Bamrauli.AP.424750_ISHRAE2014.zip,onebuilding,0,0,28,3390,549,1984,2809
423690,IND,Lucknow-Amausi-Singh_Intl_AP,ISHRAE2014,26.75,80.88,/WMO_Region_2_Asia/IND_India/UP_Uttar_Pradesh/IND_UP_Lucknow-Amausi-Singh.Intl.AP.423690_ISHRAE2014.zip,onebuilding,0,2,137,3954,609,1980,2078
424790,IND,Varanasi-Shastri_Intl_AP,ISHRAE2014,25.45,82.87,/WMO_Region_2_Asia/IND_India/UP_Uttar_Pradesh/IND_UP_Varanasi-Shastri.Intl.AP.424790_ISHRAE2014.zip,onebuilding,0,0,102,3620,723,2222,2093
423790,IND,Gorakhpur,ISHRAE2014,26.75,83.37,/WMO_Region_2_Asia/IND_India/UP_Uttar_Pradesh/IND_UP_Gorakhpur.423790_ISHRAE2014.zip,onebuilding,0,2,28,3665,564,2040,2461
421400,IND,Roorkee,ISHRAE2014,29.85,77.88,/WMO_Region_2_Asia/IND_India/UP_Uttar_Pradesh/IND_UP_Roorkee.421400_ISHRAE2014.zip,onebuilding,0,12,809,4348,697,1521,1373
421110,IND,Dehradun,ISHRAE2014,30.32,78.03,/WMO_Region_2_Asia/IND_India/UT_Uttarakhand/IND_UT_Dehradun.421110_ISHRAE2014.zip,onebuilding,0,0,187,5345,1022,1524,682
428090,IND,Kolkata-Bose_Intl_AP,ISHRAE2014,22.65,88.45,/WMO_Region_2_Asia/IND_India/WB_West_Bengal/IND_WB_Kolkata-Bose.Intl.AP.428090_ISHRAE2014.zip,onebuilding,0,4,2,2725,768,2872,2389
435550,MDV,Mal_Intl_AP_Hulul_Is,SWERA,4.2,73.53,/WMO_Region_2_Asia/MDV_Maldives/NC_Medhu-Uthuru_North_Central/MDV_NC_Male.Intl.AP-Hulule.Island.435550_SWERA.zip,onebuilding,0,0,0,2542,2593,3362,263
435990,MDV,Gan_Island_Gan_Intl_AP,SWERA,-0.68,73.15,/WMO_Region_2_Asia/MDV_Maldives/SU_Dhekunu_South/MDV_SU_Gan.Island-Gan.Intl.AP.435990_SWERA.zip,onebuilding,5,2,2,1377,2230,4750,394
407060,IRN,Tabriz_Intl_AP,ITMY,38.13,46.24,/WMO_Region_2_Asia/IRN_Iran/Azarbayjan-e_Sharqi/IRN_Azarbayjan-e.Sharqi_Tabriz.Intl.AP.407060_ITMY.zip,onebuilding,693,1731,1987,3873,200,211,65
408000,IRN,Badr_Esfahan_AFB,ITMY,32.62,51.67,/WMO_Region_2_Asia/IRN_Iran/Esfahan/IRN_Esfahan_Badr.Esfahan.AFB.408000_ITMY.zip,onebuilding,23,799,2445,4359,329,522,283
408480,IRN,Shiraz_Intl_AP,ITMY,29.53,52.6,/WMO_Region_2_Asia/IRN_Iran/Fars/IRN_Fars_Shiraz.Intl.AP.408480_ITMY.zip,onebuilding,22,671,1959,4613,350,586,559
408750,IRN,Bandar_Abass_Intl_AP,ITMY,27.22,56.37,/WMO_Region_2_Asia/IRN_Iran/Hormozgan/IRN_Hormozgan_Bandar.Abass.Intl.AP.408750_ITMY.zip,onebuilding,0,3,187,3649,585,1275,3061
407540,IRN,Tehran_Mehrabad_Intl_AP,ITMY,35.68,51.32,/WMO_Region_2_Asia/IRN_Iran/Tehran/IRN_Tehran_Tehran.Mehrabad.Intl.AP.407540_ITMY.zip,onebuilding,83,1119,2231,3854,451,661,361
408210,IRN,Yazd_Shahid_Sadooghi_AP,ITMY,31.9,54.28,/WMO_Region_2_Asia/IRN_Iran/Yazd/IRN_Yazd_Yazd.Shahid.Sadooghi.AP.408210_ITMY.zip,onebuilding,74,871,1694,4195,408,657,861
476530,JPN,Irako,TMY2,34.6,137.1,/WMO_Region_2_Asia/JPN_Japan/Aichi/JPN_Aichi_Irako.476530_JGMY.zip,onebuilding,418,1720,1868,3886,312,430,126
476360,JPN,Nagoya,TMY2,35.2,137.0,/WMO_Region_2_Asia/JPN_Japan/Aichi/JPN_Aichi_Nagoya.476360_JGMY.zip,onebuilding,171,1402,2021,4094,356,470,246
475820,JPN,Akita,TMY2,39.7,140.1,/WMO_Region_2_Asia/JPN_Japan/Akita/JPN_Akita_Akita.475820_JGMY.zip,onebuilding,1330,2209,1585,3239,177,174,46
475750,JPN,Aomori,TMY2,40.8,140.8,/WMO_Region_2_Asia/JPN_Japan/Aomori/JPN_Aomori_Aomori.475750_JGMY.zip,onebuilding,776,2455,1812,3381,158,140,38
475810,JPN,Hachinohe,TMY2,40.5,141.5,/WMO_Region_2_Asia/JPN_Japan/Aomori/JPN_Aomori_Hachinohe.475810_JGMY.zip,onebuilding,1036,2448,1705,3291,129,112,39
475760,JPN,Mutsu,TMY2,41.3,141.2,/WMO_Region_2_Asia/JPN_Japan/Aomori/JPN_Aomori_Mutsu.475760_JGMY.zip,onebuilding,718,2647,1973,3216,93,90,23
475740,JPN,Fukaura,TMY2,40.7,139.9,/WMO_Region_2_Asia/JPN_Japan/Aomori/JPN_Aomori_Fukaura.475740_JGMY.zip,onebuilding,903,2349,1735,3444,168,140,21
476820,JPN,Chiba,TMY2,35.6,140.1,/WMO_Region_2_Asia/JPN_Japan/Chiba/JPN_Chiba_Chiba.476820_JGMY.zip,onebuilding,326,1760,2174,3919,239,271,71
476740,JPN,Katsuura,TMY2,35.2,140.3,/WMO_Region_2_Asia/JPN_Japan/Chiba/JPN_Chiba_Katsuura.476740_JGMY.zip,onebuilding,154,1326,2148,4454,320,311,47
476720,JPN,Tateyama,TMY2,35.0,139.9,/WMO_Region_2_Asia/JPN_Japan/Chiba/JPN_Chiba_Tateyama.476720_JGMY.zip,onebuilding,43,941,2122,4812,361,378,103
476480,JPN,Choshi,TMY2,35.7,140.9,/WMO_Region_2_Asia/JPN_Japan/Chiba/JPN_Chiba_Choshi.476480_JGMY.zip,onebuilding,258,1581,2304,4194,228,178,17
478870,JPN,Matsuyama,TMY2,33.8,132.8,/WMO_Region_2_Asia/JPN_Japan/Ehime/JPN_Ehime_Matsuyama.478870_JGMY.zip,onebuilding,16,780,2063,4539,444,628,290
478920,JPN,Uwajima,TMY2,33.2,132.6,/WMO_Region_2_Asia/JPN_Japan/Ehime/JPN_Ehime_Uwajima.478920_JGMY.zip,onebuilding,38,900,1810,4575,468,595,374
476160,JPN,Fukui,TMY2,36.1,136.2,/WMO_Region_2_Asia/JPN_Japan/Fukui/JPN_Fukui_Fukui.476160_JGMY.zip,onebuilding,123,1528,2228,3924,328,439,190
476310,JPN,Tsuruga,TMY2,35.7,136.1,/WMO_Region_2_Asia/JPN_Japan/Fukui/JPN_Fukui_Tsuruga.476310_JGMY.zip,onebuilding,398,1848,2030,3728,257,356,143
478070,JPN,Fukuoka,TMY2,33.6,130.4,/WMO_Region_2_Asia/JPN_Japan/Fukuoka/JPN_Fukuoka_Fukuoka.478070_JGMY.zip,onebuilding,98,1126,2030,4284,418,539,265
478090,JPN,Iizuka,TMY2,33.7,130.7,/WMO_Region_2_Asia/JPN_Japan/Fukuoka/JPN_Fukuoka_Iizuka.478090_JGMY.zip,onebuilding,32,909,2084,4440,416,572,307
475950,JPN,Fukushima,TMY2,37.8,140.5,/WMO_Region_2_Asia/JPN_Japan/Fukushima/JPN_Fukushima_Fukushima.475950_JGMY.zip,onebuilding,221,1913,2072,3852,235,308,159
475970,JPN,Shirakawa,TMY2,37.1,140.2,/WMO_Region_2_Asia/JPN_Japan/Fukushima/JPN_Fukushima_Shirakawa.475970_JGMY.zip,onebuilding,448,2130,1977,3722,200,217,66
475700,JPN,Wakamatsu,TMY2,37.5,139.9,/WMO_Region_2_Asia/JPN_Japan/Fukushima/JPN_Fukushima_Wakamatsu.475700_JGMY.zip,onebuilding,132,1966,2085,3837,258,329,153
475980,JPN,Onahama,TMY2,37.0,140.9,/WMO_Region_2_Asia/JPN_Japan/Fukushima/JPN_Fukushima_Onahama.475980_JGMY.zip,onebuilding,208,1720,2167,4253,223,170,19
476320,JPN,Gifu,TMY2,35.4,136.8,/WMO_Region_2_Asia/JPN_Japan/Gifu/JPN_Gifu_Gifu.476320_JGMY.zip,onebuilding,85,1188,2043,4264,403,522,255
477510,JPN,Ibukiyama,TMY2,35.4,136.4,/WMO_Region_2_Asia/JPN_Japan/Gifu/JPN_Gifu_Ibukiyama.477510_JGMY.zip,onebuilding,3829,2062,1679,1190,0,0,0
476170,JPN,Takayama,TMY2,36.2,137.3,/WMO_Region_2_Asia/JPN_Japan/Gifu/JPN_Gifu_Takayama.476170_JGMY.zip,onebuilding,70,1803,2272,3981,242,296,96
476240,JPN,Maebashi,TMY2,36.4,139.1,/WMO_Region_2_Asia/JPN_Japan/Gunma/JPN_Gunma_Maebashi.476240_JGMY.zip,onebuilding,320,1751,1936,3907,317,370,159
477670,JPN,Fukuyama,TMY2,34.5,133.3,/WMO_Region_2_Asia/JPN_Japan/Hiroshima/JPN_Hiroshima_Fukuyama.477670_JGMY.zip,onebuilding,5,685,2122,4608,450,563,327
477650,JPN,Hiroshima,TMY2,34.4,132.5,/WMO_Region_2_Asia/JPN_Japan/Hiroshima/JPN_Hiroshima_Hiroshima.477650_JGMY.zip,onebuilding,91,1362,2122,4052,402,519,212
477660,JPN,Kure,TMY2,34.2,132.6,/WMO_Region_2_Asia/JPN_Japan/Hiroshima/JPN_Hiroshima_Kure.477660_JGMY.zip,onebuilding,35,837,2124,4472,488,555,249
474090,JPN,Abashiri,TMY2,44.0,144.3,/WMO_Region_2_Asia/JPN_Japan/Hokkaido/JPN_Hokkaido_Abashiri.474090_JGMY.zip,onebuilding,1702,2603,1807,2583,31,33,1
474180,JPN,Kushiro,TMY2,43.0,144.4,/WMO_Region_2_Asia/JPN_Japan/Hokkaido/JPN_Hokkaido_Kushiro.474180_JGMY.zip,onebuilding,1783,2746,2055,2172,4,0,0
474110,JPN,Otaru,TMY2,43.2,141.0,/WMO_Region_2_Asia/JPN_Japan/Hokkaido/JPN_Hokkaido_Otaru.474110_JGMY.zip,onebuilding,902,2571,1796,3313,95,79,4
474070,JPN,Asahikawa,TMY2,43.8,142.4,/WMO_Region_2_Asia/JPN_Japan/Hokkaido/JPN_Hokkaido_Asahikawa.474070_JGMY.zip,onebuilding,796,2695,1783,3221,128,115,22
474330,JPN,Kutchan,TMY2,42.9,140.8,/WMO_Region_2_Asia/JPN_Japan/Hokkaido/JPN_Hokkaido_Kutchan.474330_JGMY.zip,onebuilding,691,2864,1924,3131,83,62,5
474060,JPN,Rumoi,TMY2,44.0,141.6,/WMO_Region_2_Asia/JPN_Japan/Hokkaido/JPN_Hokkaido_Rumoi.474060_JGMY.zip,onebuilding,2565,2176,1563,2395,42,19,0
474280,JPN,Esashi,TMY2,41.9,140.1,/WMO_Region_2_Asia/JPN_Japan/Hokkaido/JPN_Hokkaido_Esashi.474280_JGMY.zip,onebuilding,2096,2003,1481,3000,100,79,1
474350,JPN,Mombetsu,TMY2,44.4,143.4,/WMO_Region_2_Asia/JPN_Japan/Hokkaido/JPN_Hokkaido_Mombetsu.474350_JGMY.zip,onebuilding,1930,2536,1701,2536,23,34,0
474120,JPN,Sapporo,TMY2,43.1,141.3,/WMO_Region_2_Asia/JPN_Japan/Hokkaido/JPN_Hokkaido_Sapporo.474120_JGMY.zip,onebuilding,514,2775,1990,3286,111,76,8
474040,JPN,Haboro,TMY2,44.4,141.7,/WMO_Region_2_Asia/JPN_Japan/Hokkaido/JPN_Hokkaido_Haboro.474040_JGMY.zip,onebuilding,1600,2548,1655,2866,60,31,0
474230,JPN,Muroran,TMY2,42.3,141.0,/WMO_Region_2_Asia/JPN_Japan/Hokkaido/JPN_Hokkaido_Muroran.474230_JGMY.zip,onebuilding,2012,2382,1760,2575,22,9,0
474210,JPN,Suttsu,TMY2,42.8,140.2,/WMO_Region_2_Asia/JPN_Japan/Hokkaido/JPN_Hokkaido_Suttsu.474210_JGMY.zip,onebuilding,2409,2446,1755,2129,15,6,0
474300,JPN,Hakodate,TMY2,41.8,140.8,/WMO_Region_2_Asia/JPN_Japan/Hokkaido/JPN_Hokkaido_Hakodate.474300_JGMY.zip,onebuilding,806,2623,1949,3207,100,71,4
474200,JPN,Nemuro,TMY2,43.3,145.6,/WMO_Region_2_Asia/JPN_Japan/Hokkaido/JPN_Hokkaido_Nemuro.474200_JGMY.zip,onebuilding,1958,2898,2027,1867,10,0,0
474240,JPN,Tomakomai,TMY2,42.6,141.6,/WMO_Region_2_Asia/JPN_Japan/Hokkaido/JPN_Hokkaido_Tomakomai.474240_JGMY.zip,onebuilding,1832,2752,1830,2335,10,1,0
474400,JPN,Hiroo,TMY2,42.3,143.3,/WMO_Region_2_Asia/JPN_Japan/Hokkaido/JPN_Hokkaido_Hiroo.474400_JGMY.zip,onebuilding,1037,2727,2015,2936,31,14,0
474170,JPN,Obihiro,TMY2,42.9,143.2,/WMO_Region_2_Asia/JPN_Japan/Hokkaido/JPN_Hokkaido_Obihiro.474170_JGMY.zip,onebuilding,961,2557,1804,3249,100,77,12
474260,JPN,Urakawa,TMY2,42.2,142.8,/WMO_Region_2_Asia/JPN_Japan/Hokkaido/JPN_Hokkaido_Urakawa.474260_JGMY.zip,onebuilding,1979,2448,1777,2531,21,4,0
474130,JPN,Iwamizawa,TMY2,43.2,141.8,/WMO_Region_2_Asia/JPN_Japan/Hokkaido/JPN_Hokkaido_Iwamizawa.474130_JGMY.zip,onebuilding,1503,2650,1715,2728,89,71,4
474050,JPN,Omu,TMY2,44.6,143.0,/WMO_Region_2_Asia/JPN_Japan/Hokkaido/JPN_Hokkaido_Omu.474050_JGMY.zip,onebuilding,1830,2703,1768,2403,34,21,1
474010,JPN,Wakkanai,TMY2,45.4,141.7,/WMO_Region_2_Asia/JPN_Japan/Hokkaido/JPN_Hokkaido_Wakkanai.474010_JGMY.zip,onebuilding,2321,2614,1762,2044,16,3,0
474020,JPN,Kitamiesashi,TMY2,44.9,142.6,/WMO_Region_2_Asia/JPN_Japan/Hokkaido/JPN_Hokkaido_Kitamiesashi.474020_JGMY.zip,onebuilding,1347,2888,1940,2526,36,23,0
477690,JPN,Himeji,TMY2,34.8,134.7,/WMO_Region_2_Asia/JPN_Japan/Hyogo/JPN_Hyogo_Himeji.477690_JGMY.zip,onebuilding,174,1471,2083,4037,347,453,195
477760,JPN,Sumoto,TMY2,34.3,134.9,/WMO_Region_2_Asia/JPN_Japan/Hyogo/JPN_Hyogo_Sumoto.477760_JGMY.zip,onebuilding,206,1534,1968,4069,361,461,161
477470,JPN,Toyooka,TMY2,35.5,134.8,/WMO_Region_2_Asia/JPN_Japan/Hyogo/JPN_Hyogo_Toyooka.477470_JGMY.zip,onebuilding,5,817,2311,4494,351,466,316
477700,JPN,Kobe,TMY2,34.7,135.2,/WMO_Region_2_Asia/JPN_Japan/Hyogo/JPN_Hyogo_Kobe.477700_JGMY.zip,onebuilding,186,1462,2020,4116,374,444,158
476290,JPN,Mito,TMY2,36.4,140.5,/WMO_Region_2_Asia/JPN_Japan/Ibaraki/JPN_Ibaraki_Mito.476290_JGMY.zip,onebuilding,88,1390,2172,4393,260,328,129
476460,JPN,Tateno,TMY2,36.1,140.1,/WMO_Region_2_Asia/JPN_Japan/Ibaraki/JPN_Ibaraki_Tateno.476460_JGMY.zip,onebuilding,168,1506,2064,4246,273,346,157
476050,JPN,Kanazawa,TMY2,36.6,136.7,/WMO_Region_2_Asia/JPN_Japan/Ishikawa/JPN_Ishikawa_Kanazawa.476050_JGMY.zip,onebuilding,61,1258,2202,4158,393,473,215
476000,JPN,Wajima,TMY2,37.4,136.9,/WMO_Region_2_Asia/JPN_Japan/Ishikawa/JPN_Ishikawa_Wajima.476000_JGMY.zip,onebuilding,582,2147,1960,3551,215,231,74
475850,JPN,Miyako,TMY2,39.7,142.0,/WMO_Region_2_Asia/JPN_Japan/Iwate/JPN_Iwate_Miyako.475850_JGMY.zip,onebuilding,178,2075,2306,3827,172,150,52
475840,JPN,Morioka,TMY2,39.7,141.2,/WMO_Region_2_Asia/JPN_Japan/Iwate/JPN_Iwate_Morioka.475840_JGMY.zip,onebuilding,689,2481,1904,3296,167,173,50
475120,JPN,Ofunato,TMY2,39.1,141.7,/WMO_Region_2_Asia/JPN_Japan/Iwate/JPN_Iwate_Ofunato.475120_JGMY.zip,onebuilding,152,1882,2304,4047,172,165,38
478900,JPN,Tadotsu,TMY2,34.3,133.8,/WMO_Region_2_Asia/JPN_Japan/Kagawa/JPN_Kagawa_Tadotsu.478900_JGMY.zip,onebuilding,79,1086,2071,4222,448,577,277
478910,JPN,Takamatsu,TMY2,34.3,134.1,/WMO_Region_2_Asia/JPN_Japan/Kagawa/JPN_Kagawa_Takamatsu.478910_JGMY.zip,onebuilding,64,1169,2042,4209,460,549,267
478230,JPN,Akune,TMY2,32.0,130.2,/WMO_Region_2_Asia/JPN_Japan/Kagoshima/JPN_Kagoshima_Akune.478230_JGMY.zip,onebuilding,122,1105,1978,4299,447,602,207
479090,JPN,Naze,TMY2,28.4,129.5,/WMO_Region_2_Asia/JPN_Japan/Kagoshima/JPN_Kagoshima_Naze.479090_JGMY.zip,onebuilding,0,74,728,5433,772,1189,564
478370,JPN,Tanegashima,TMY2,30.7,131.0,/WMO_Region_2_Asia/JPN_Japan/Kagoshima/JPN_Kagoshima_Tanegashima.478370_JGMY.zip,onebuilding,107,908,1806,4581,510,664,184
478270,JPN,Kagoshima-Yoshino,TMY2,31.6,130.6,/WMO_Region_2_Asia/JPN_Japan/Kagoshima/JPN_Kagoshima_Kagoshima-Yoshino.478270_JGMY.zip,onebuilding,34,719,1748,4636,521,758,344
479420,JPN,Okinoerabu,TMY2,27.4,128.7,/WMO_Region_2_Asia/JPN_Japan/Kagoshima/JPN_Kagoshima_Okinoerabu.479420_JGMY.zip,onebuilding,5,216,1262,5464,661,920,232
478360,JPN,Yakushima,TMY2,30.4,130.7,/WMO_Region_2_Asia/JPN_Japan/Kagoshima/JPN_Kagoshima_Yakushima.478360_JGMY.zip,onebuilding,61,749,1705,4870,530,666,179
478310,JPN,Makurazaki,TMY2,31.3,130.3,/WMO_Region_2_Asia/JPN_Japan/Kagoshima/JPN_Kagoshima_Makurazaki.478310_JGMY.zip,onebuilding,130,1087,1897,4426,463,614,143
476700,JPN,Yokohama,TMY2,35.4,139.7,/WMO_Region_2_Asia/JPN_Japan/Kanagawa/JPN_Kanagawa_Yokohama.476700_JGMY.zip,onebuilding,164,1394,2255,4180,283,368,116
478930,JPN,Kochi,TMY2,33.6,133.5,/WMO_Region_2_Asia/JPN_Japan/Kochi/JPN_Kochi_Kochi.478930_JGMY.zip,onebuilding,24,610,1790,4832,507,676,321
478990,JPN,Murotomisaki,TMY2,33.3,134.2,/WMO_Region_2_Asia/JPN_Japan/Kochi/JPN_Kochi_Murotomisaki.478990_JGMY.zip,onebuilding,832,1945,1914,3666,211,172,20
478980,JPN,Shimizu-Ashizuri,TMY2,32.7,133.0,/WMO_Region_2_Asia/JPN_Japan/Kochi/JPN_Kochi_Shimizu-Ashizuri.478980_JGMY.zip,onebuilding,66,833,1889,4784,485,620,83
478210,JPN,Asosan,TMY2,32.9,131.1,/WMO_Region_2_Asia/JPN_Japan/Kumamoto/JPN_Kumamoto_Asosan.478210_JGMY.zip,onebuilding,1394,2416,2015,2926,9,0,0
478190,JPN,Kumamoto,TMY2,32.8,130.7,/WMO_Region_2_Asia/JPN_Japan/Kumamoto/JPN_Kumamoto_Kumamoto.478190_JGMY.zip,onebuilding,17,727,1902,4598,458,675,383
478380,JPN,Ushibuka,TMY2,32.2,130.0,/WMO_Region_2_Asia/JPN_Japan/Kumamoto/JPN_Kumamoto_Ushibuka.478380_JGMY.zip,onebuilding,15,597,1851,4892,499,621,285
478240,JPN,Hitoyoshi,TMY2,32.2,130.8,/WMO_Region_2_Asia/JPN_Japan/Kumamoto/JPN_Kumamoto_Hitoyoshi.478240_JGMY.zip,onebuilding,21,815,1905,4693,404,599,323
477590,JPN,Kyoto,TMY2,35.0,135.7,/WMO_Region_2_Asia/JPN_Japan/Kyoto/JPN_Kyoto_Kyoto.477590_JGMY.zip,onebuilding,5,639,2186,4622,416,572,320
477500,JPN,Maizuru,TMY2,35.5,135.3,/WMO_Region_2_Asia/JPN_Japan/Kyoto/JPN_Kyoto_Maizuru.477500_JGMY.zip,onebuilding,66,1259,2263,4156,352,444,220
476630,JPN,Owase,TMY2,34.1,136.2,/WMO_Region_2_Asia/JPN_Japan/Mie/JPN_Mie_Owase.476630_JGMY.zip,onebuilding,29,714,1963,5007,410,506,131
476490,JPN,Ueno,TMY2,34.8,136.2,/WMO_Region_2_Asia/JPN_Japan/Mie/JPN_Mie_Ueno.476490_JGMY.zip,onebuilding,218,1566,2024,3996,311,437,208
476840,JPN,Yokkaichi,TMY2,34.9,136.6,/WMO_Region_2_Asia/JPN_Japan/Mie/JPN_Mie_Yokkaichi.476840_JGMY.zip,onebuilding,142,1369,2134,4205,336,442,132
476510,JPN,Tsu,TMY2,34.7,136.5,/WMO_Region_2_Asia/JPN_Japan/Mie/JPN_Mie_Tsu.476510_JGMY.zip,onebuilding,159,1398,2043,4109,405,486,160
475920,JPN,Ishinomaki,TMY2,38.4,141.3,/WMO_Region_2_Asia/JPN_Japan/Miyagi/JPN_Miyagi_Ishinomaki.475920_JGMY.zip,onebuilding,345,2192,2147,3712,178,148,38
475900,JPN,Sendai,TMY2,38.3,140.9,/WMO_Region_2_Asia/JPN_Japan/Miyagi/JPN_Miyagi_Sendai.475900_JGMY.zip,onebuilding,665,2175,1922,3581,175,183,59
478350,JPN,Aburatsu,TMY2,31.6,131.4,/WMO_Region_2_Asia/JPN_Japan/Miyazaki/JPN_Miyazaki_Aburatsu.478350_JGMY.zip,onebuilding,175,1204,1941,4345,446,507,142
478300,JPN,Miyazaki,TMY2,31.9,131.4,/WMO_Region_2_Asia/JPN_Japan/Miyazaki/JPN_Miyazaki_Miyazaki.478300_JGMY.zip,onebuilding,59,821,1805,4741,452,606,276
478220,JPN,Nobeoka,TMY2,32.6,131.7,/WMO_Region_2_Asia/JPN_Japan/Miyazaki/JPN_Miyazaki_Nobeoka.478220_JGMY.zip,onebuilding,8,582,1739,4991,485,670,285
478290,JPN,Miyakonojo,TMY2,31.7,131.1,/WMO_Region_2_Asia/JPN_Japan/Miyazaki/JPN_Miyazaki_Miyakonojo.478290_JGMY.zip,onebuilding,21,641,1780,4982,410,610,316
476370,JPN,Iida,TMY2,35.5,137.8,/WMO_Region_2_Asia/JPN_Japan/Nagano/JPN_Nagano_Iida.476370_JGMY.zip,onebuilding,58,1459,2135,4352,284,350,122
476180,JPN,Matsumoto,TMY2,36.3,138.0,/WMO_Region_2_Asia/JPN_Japan/Nagano/JPN_Nagano_Matsumoto.476180_JGMY.zip,onebuilding,295,1984,2124,3792,215,262,88
476200,JPN,Suwa,TMY2,36.1,138.1,/WMO_Region_2_Asia/JPN_Japan/Nagano/JPN_Nagano_Suwa.476200_JGMY.zip,onebuilding,586,2183,1986,3591,195,179,40
476220,JPN,Karuizawa,TMY2,36.3,138.6,/WMO_Region_2_Asia/JPN_Japan/Nagano/JPN_Nagano_Karuizawa.476220_JGMY.zip,onebuilding,610,2347,1980,3597,125,89,12
476100,JPN,Nagano,TMY2,36.7,138.2,/WMO_Region_2_Asia/JPN_Japan/Nagano/JPN_Nagano_Nagano.476100_JGMY.zip,onebuilding,237,2030,2166,3732,235,263,97
478430,JPN,Fukue,TMY2,32.7,128.8,/WMO_Region_2_Asia/JPN_Japan/Nagasaki/JPN_Nagasaki_Fukue.478430_JGMY.zip,onebuilding,101,1087,2111,4363,402,522,174
478000,JPN,Izuhara,TMY2,34.2,129.3,/WMO_Region_2_Asia/JPN_Japan/Nagasaki/JPN_Nagasaki_Izuhara.478000_JGMY.zip,onebuilding,130,1221,2109,4382,363,425,130
478120,JPN,Sasebo,TMY2,33.2,129.7,/WMO_Region_2_Asia/JPN_Japan/Nagasaki/JPN_Nagasaki_Sasebo.478120_JGMY.zip,onebuilding,30,760,2043,4494,492,651,290
478050,JPN,Hirado,TMY2,33.4,129.6,/WMO_Region_2_Asia/JPN_Japan/Nagasaki/JPN_Nagasaki_Hirado.478050_JGMY.zip,onebuilding,131,1252,2095,4378,364,432,108
478170,JPN,Nagasaki,TMY2,32.7,129.9,/WMO_Region_2_Asia/JPN_Japan/Nagasaki/JPN_Nagasaki_Nagasaki.478170_JGMY.zip,onebuilding,5,575,1993,4707,488,700,292
478180,JPN,Unzendake,TMY2,32.7,130.3,/WMO_Region_2_Asia/JPN_Japan/Nagasaki/JPN_Nagasaki_Unzendake.478180_JGMY.zip,onebuilding,19,867,2379,5022,254,206,13
477800,JPN,Nara,TMY2,34.7,135.8,/WMO_Region_2_Asia/JPN_Japan/Nara/JPN_Nara_Nara.477800_JGMY.zip,onebuilding,18,952,2134,4407,391,563,295
476020,JPN,Aikawa,TMY2,38.0,138.3,/WMO_Region_2_Asia/JPN_Japan/Niigata/JPN_Niigata_Aikawa.476020_JGMY.zip,onebuilding,979,1920,1688,3628,237,246,62
476040,JPN,Niigata,TMY2,37.9,139.1,/WMO_Region_2_Asia/JPN_Japan/Niigata/JPN_Niigata_Niigata.476040_JGMY.zip,onebuilding,558,2034,1852,3645,244,324,103
476120,JPN,Takada,TMY2,37.1,138.3,/WMO_Region_2_Asia/JPN_Japan/Niigata/JPN_Niigata_Takada.476120_JGMY.zip,onebuilding,137,1679,2066,3945,348,401,184
478140,JPN,Hita,TMY2,33.3,130.9,/WMO_Region_2_Asia/JPN_Japan/Oita/JPN_Oita_Hita.478140_JGMY.zip,onebuilding,7,739,1955,4614,419,602,424
478150,JPN,Oita,TMY2,33.2,131.6,/WMO_Region_2_Asia/JPN_Japan/Oita/JPN_Oita_Oita.478150_JGMY.zip,onebuilding,80,1120,1985,4385,387,559,244
477680,JPN,Okayama,TMY2,34.7,133.9,/WMO_Region_2_Asia/JPN_Japan/Okayama/JPN_Okayama_Okayama.477680_JGMY.zip,onebuilding,50,980,2046,4213,495,677,299
477560,JPN,Tsuyama,TMY2,35.1,134.0,/WMO_Region_2_Asia/JPN_Japan/Okayama/JPN_Okayama_Tsuyama.477560_JGMY.zip,onebuilding,77,1386,2087,4167,328,444,271
479170,JPN,Iriomotejima,TMY2,24.4,123.8,/WMO_Region_2_Asia/JPN_Japan/Okinawa/JPN_Okinawa_Iriomotejima.479170_JGMY.zip,onebuilding,0,59,603,5386,880,1345,487
479450,JPN,Minamidaitojima,TMY2,25.8,131.2,/WMO_Region_2_Asia/JPN_Japan/Okinawa/JPN_Okinawa_Minamidaitojima.479450_JGMY.zip,onebuilding,0,29,525,5836,847,1184,339
479360,JPN,Naha,TMY2,26.2,127.7,/WMO_Region_2_Asia/JPN_Japan/Okinawa/JPN_Okinawa_Naha.479360_JGMY.zip,onebuilding,0,102,936,5599,792,1075,256
479180,JPN,Ishigakijima,TMY2,24.3,124.2,/WMO_Region_2_Asia/JPN_Japan/Okinawa/JPN_Okinawa_Ishigakijima.479180_JGMY.zip,onebuilding,0,68,594,5374,881,1397,446
479270,JPN,Miyakojima,TMY2,24.8,125.3,/WMO_Region_2_Asia/JPN_Japan/Okinawa/JPN_Okinawa_Miyakojima.479270_JGMY.zip,onebuilding,1,84,764,5590,819,1167,335
479120,JPN,Yonaguni-jima,TMY2,24.5,123.0,/WMO_Region_2_Asia/JPN_Japan/Okinawa/JPN_Okinawa_Yonaguni-jima.479120_JGMY.zip,onebuilding,4,201,950,5411,819,1108,267
479290,JPN,Kumejima,TMY2,26.3,126.8,/WMO_Region_2_Asia/JPN_Japan/Okinawa/JPN_Okinawa_Kumejima.479290_JGMY.zip,onebuilding,0,80,758,5435,825,1264,398
479400,JPN,Nago,TMY2,26.6,128.0,/WMO_Region_2_Asia/JPN_Japan/Okinawa/JPN_Okinawa_Nago.479400_JGMY.zip,onebuilding,0,29,550,5774,802,1137,468
477720,JPN,Osaka,TMY2,34.7,135.5,/WMO_Region_2_Asia/JPN_Japan/Osaka/JPN_Osaka_Osaka.477720_JGMY.zip,onebuilding,134,1343,2097,4070,370,493,253
478130,JPN,Saga,TMY2,33.3,130.3,/WMO_Region_2_Asia/JPN_Japan/Saga/JPN_Saga_Saga.478130_JGMY.zip,onebuilding,52,904,2098,4385,402,585,334
476410,JPN,Chichibu,TMY2,36.0,139.1,/WMO_Region_2_Asia/JPN_Japan/Saitama/JPN_Saitama_Chichibu.476410_JGMY.zip,onebuilding,42,1223,1959,4637,318,386,195
476260,JPN,Kumagaya,TMY2,36.2,139.4,/WMO_Region_2_Asia/JPN_Japan/Saitama/JPN_Saitama_Kumagaya.476260_JGMY.zip,onebuilding,175,1525,1916,4182,337,393,232
477610,JPN,Hikone,TMY2,35.3,136.3,/WMO_Region_2_Asia/JPN_Japan/Shiga/JPN_Shiga_Hikone.477610_JGMY.zip,onebuilding,207,1597,2001,3929,385,437,204
477550,JPN,Hamada,TMY2,34.9,132.1,/WMO_Region_2_Asia/JPN_Japan/Shimane/JPN_Shimane_Hamada.477550_JGMY.zip,onebuilding,262,1642,2023,3996,300,408,129
477400,JPN,Saigo,TMY2,36.2,133.3,/WMO_Region_2_Asia/JPN_Japan/Shimane/JPN_Shimane_Saigo.477400_JGMY.zip,onebuilding,269,1732,2197,3891,277,292,102
477420,JPN,Sakai,TMY2,35.6,133.2,/WMO_Region_2_Asia/JPN_Japan/Shimane/JPN_Shimane_Sakai.477420_JGMY.zip,onebuilding,23,966,2216,4462,385,490,218
477410,JPN,Matsue,TMY2,35.5,133.1,/WMO_Region_2_Asia/JPN_Japan/Shimane/JPN_Shimane_Matsue.477410_JGMY.zip,onebuilding,262,1675,2066,3910,269,385,193
476680,JPN,Ajiro,TMY2,35.1,139.1,/WMO_Region_2_Asia/JPN_Japan/Shizuoka/JPN_Shizuoka_Ajiro.476680_JGMY.zip,onebuilding,71,1010,2096,4695,369,409,110
476660,JPN,Irozaki,TMY2,34.6,138.9,/WMO_Region_2_Asia/JPN_Japan/Shizuoka/JPN_Shizuoka_Irozaki.476660_JGMY.zip,onebuilding,227,1504,2122,4340,306,239,22
476550,JPN,Omaezaki,TMY2,34.6,138.2,/WMO_Region_2_Asia/JPN_Japan/Shizuoka/JPN_Shizuoka_Omaezaki.476550_JGMY.zip,onebuilding,616,1623,1816,3996,318,340,51
476540,JPN,Hamamatsu,TMY2,34.7,137.7,/WMO_Region_2_Asia/JPN_Japan/Shizuoka/JPN_Shizuoka_Hamamatsu.476540_JGMY.zip,onebuilding,269,1441,1839,4222,385,470,134
476570,JPN,Mishima,TMY2,35.1,138.9,/WMO_Region_2_Asia/JPN_Japan/Shizuoka/JPN_Shizuoka_Mishima.476570_JGMY.zip,onebuilding,15,662,1996,4965,408,538,176
476560,JPN,Shizuoka,TMY2,35.0,138.4,/WMO_Region_2_Asia/JPN_Japan/Shizuoka/JPN_Shizuoka_Shizuoka.476560_JGMY.zip,onebuilding,27,686,2008,4974,414,495,156
476900,JPN,Nikko,TMY2,36.7,139.5,/WMO_Region_2_Asia/JPN_Japan/Tochigi/JPN_Tochigi_Nikko.476900_JGMY.zip,onebuilding,1453,2413,1830,3025,37,2,0
476150,JPN,Utsunomiya,TMY2,36.6,139.9,/WMO_Region_2_Asia/JPN_Japan/Tochigi/JPN_Tochigi_Utsunomiya.476150_JGMY.zip,onebuilding,79,1360,2095,4449,279,365,133
478950,JPN,Tokushima,TMY2,34.1,134.6,/WMO_Region_2_Asia/JPN_Japan/Tokushima/JPN_Tokushima_Tokushima.478950_JGMY.zip,onebuilding,97,1324,2090,4164,395,516,174
478940,JPN,Tsurugisan,TMY2,33.9,134.1,/WMO_Region_2_Asia/JPN_Japan/Tokushima/JPN_Tokushima_Tsurugisan.478940_JGMY.zip,onebuilding,3793,2317,1749,901,0,0,0
479710,JPN,Chichijima,TMY2,27.1,142.2,/WMO_Region_2_Asia/JPN_Japan/Tokyo/JPN_Tokyo_Chichijima.479710_JGMY.zip,onebuilding,0,9,367,5968,1002,1234,180
479910,JPN,Minamitorishima,TMY2,24.3,154.0,/WMO_Region_2_Asia/JPN_Japan/Tokyo/JPN_Tokyo_Minamitorishima.479910_JGMY.zip,onebuilding,0,1,141,6059,1035,1255,269
476750,JPN,Oshima,TMY2,34.8,139.4,/WMO_Region_2_Asia/JPN_Japan/Tokyo/JPN_Tokyo_Oshima.476750_JGMY.zip,onebuilding,712,2128,2150,3520,142,105,3
476780,JPN,Hachijojima,TMY2,33.1,139.8,/WMO_Region_2_Asia/JPN_Japan/Tokyo/JPN_Tokyo_Hachijojima.476780_JGMY.zip,onebuilding,239,1233,1982,4507,386,371,42
476770,JPN,Miyakejima,TMY2,34.1,139.5,/WMO_Region_2_Asia/JPN_Japan/Tokyo/JPN_Tokyo_Miyakejima.476770_JGMY.zip,onebuilding,165,1299,2131,4464,341,333,27
476620,JPN,Tokyo,TMY2,35.7,139.8,/WMO_Region_2_Asia/JPN_Japan/Tokyo/JPN_Tokyo_Tokyo.476620_JGMY.zip,onebuilding,155,1433,2141,4171,336,373,151
477460,JPN,Tottori,TMY2,35.5,134.2,/WMO_Region_2_Asia/JPN_Japan/Tottori/JPN_Tottori_Tottori.474240_JGMY.zip,onebuilding,209,1642,2103,3873,311,402,220
477440,JPN,Yonago,TMY2,35.4,133.4,/WMO_Region_2_Asia/JPN_Japan/Tottori/JPN_Tottori_Yonago.477440_JGMY.zip,onebuilding,126,1397,2168,4125,344,415,185
476060,JPN,Fushiki,TMY2,36.8,137.1,/WMO_Region_2_Asia/JPN_Japan/Toyama/JPN_Toyama_Fushiki.476060_JGMY.zip,onebuilding,78,1588,2183,4031,341,378,161
476070,JPN,Toyama,TMY2,36.7,137.2,/WMO_Region_2_Asia/JPN_Japan/Toyama/JPN_Toyama_Toyama.476070_JGMY.zip,onebuilding,196,1716,2130,3906,303,372,137
477780,JPN,Shionomisaki,TMY2,33.5,135.8,/WMO_Region_2_Asia/JPN_Japan/Wakayama/JPN_Wakayama_Shionomisaki.477780_JGMY.zip,onebuilding,136,1197,2114,4528,350,389,46
477770,JPN,Wakayama,TMY2,34.2,135.2,/WMO_Region_2_Asia/JPN_Japan/Wakayama/JPN_Wakayama_Wakayama.477770_JGMY.zip,onebuilding,78,1187,2021,4284,424,533,233
475870,JPN,Sakata,TMY2,38.9,139.9,/WMO_Region_2_Asia/JPN_Japan/Yamagata/JPN_Yamagata_Sakata.475870_JGMY.zip,onebuilding,1187,2143,1671,3306,194,197,62
475200,JPN,Shinjo,TMY2,38.8,140.3,/WMO_Region_2_Asia/JPN_Japan/Yamagata/JPN_Yamagata_Shinjo.475200_JGMY.zip,onebuilding,624,2351,1892,3453,170,203,67
475880,JPN,Yamagata,TMY2,38.3,140.4,/WMO_Region_2_Asia/JPN_Japan/Yamagata/JPN_Yamagata_Yamagata.475880_JGMY.zip,onebuilding,48,1791,2292,3920,251,311,147
477540,JPN,Hagi,TMY2,34.4,131.4,/WMO_Region_2_Asia/JPN_Japan/Yamaguchi/JPN_Yamaguchi_Hagi.477540_JGMY.zip,onebuilding,201,1547,2076,4066,298,374,198
477620,JPN,Shimonoseki,TMY2,34.0,130.9,/WMO_Region_2_Asia/JPN_Japan/Yamaguchi/JPN_Yamaguchi_Shimonoseki.477620_JGMY.zip,onebuilding,193,1488,2036,4086,387,453,117
477840,JPN,Yamaguchi,TMY2,34.2,131.5,/WMO_Region_2_Asia/JPN_Japan/Yamaguchi/JPN_Yamaguchi_Yamaguchi.477840_JGMY.zip,onebuilding,12,789,2102,4593,444,549,271
476390,JPN,Fujisan,TMY2,35.4,138.7,/WMO_Region_2_Asia/JPN_Japan/Yamanashi/JPN_Yamanashi_Fujisan.476390_JGMY.zip,onebuilding,7478,1138,141,3,0,0,0
476400,JPN,Kawaguchiko,TMY2,35.5,138.8,/WMO_Region_2_Asia/JPN_Japan/Yamanashi/JPN_Yamanashi_Kawaguchiko.476400_JGMY.zip,onebuilding,288,1938,2198,4022,174,130,10
476380,JPN,Kofu,TMY2,35.7,138.6,/WMO_Region_2_Asia/JPN_Japan/Yamanashi/JPN_Yamanashi_Kofu.476380_JGMY.zip,onebuilding,77,1265,1995,4429,328,451,215
444540,NPL,Kathmandu_Intl_AP,SWERA,27.7,85.37,/WMO_Region_2_Asia/NPL_Nepal/Madhyamanchal_Central/NPL_Madhyamanchal.Central_Kathmandu.Intl.AP.444540_SWERA.zip,onebuilding,0,2,876,7203,485,193,1
444160,NPL,Surkhet,SWERA,28.6,81.62,/WMO_Region_2_Asia/NPL_Nepal/Madhya_Pashchimanchal_Mid_Western/NPL_Madhya.Pashchimanchal.Mid.Western_Surkhet.444160_SWERA.zip,onebuilding,1,13,394,4833,1123,1812,584
871550,ARG,Resistencia_Intl_AP,TMY,-27.45,-59.05,/WMO_Region_3_South_America/ARG_Argentina/Chaco/ARG_Chaco_Resistencia.Intl.AP_871550_ArgTMY.zip,onebuilding,0,108,835,5770,728,850,469
871490,ARG,Saenz_Pea_AP,TMY,-26.82,-60.45,/WMO_Region_3_South_America/ARG_Argentina/Chaco/ARG_Chaco_Saenz.Pena.AP_871490_ArgTMY.zip,onebuilding,4,267,963,5229,666,884,747
871660,ARG,Corrientes_Intl_AP,TMY,-27.45,-58.77,/WMO_Region_3_South_America/ARG_Argentina/Corrientes/ARG_Corrientes_Corrientes.Intl.AP_871660_ArgTMY.zip,onebuilding,6,164,927,5864,617,793,389
873930,ARG,Monte_Caseros_AP,TMY,-30.27,-57.65,/WMO_Region_3_South_America/ARG_Argentina/Corrientes/ARG_Corrientes_Monte.Caseros.AP_873930_ArgTMY.zip,onebuilding,13,299,1310,5929,476,526,207
872890,ARG,Paso_de_los_Libres_Intl_AP,TMY,-29.68,-57.15,/WMO_Region_3_South_America/ARG_Argentina/Corrientes/ARG_Corrientes_Paso.de.los.Libres.Intl.AP_872890_ArgTMY.zip,onebuilding,43,654,1834,5298,339,381,211
873950,ARG,Concordia,TMY,-31.3,-58.02,/WMO_Region_3_South_America/ARG_Argentina/Entre_R%C3%ADos/ARG_Entre.Rios_Concordia_873950_ArgTMY.zip,onebuilding,2,436,1705,5710,324,416,167
874970,ARG,Gualeguaychu_AP,TMY,-33.0,-58.62,/WMO_Region_3_South_America/ARG_Argentina/Entre_R%C3%ADos/ARG_Entre.Rios_Gualeguaychu.AP_874970_ArgTMY.zip,onebuilding,1,446,2022,5484,324,375,108
873740,ARG,Parana_AP,TMY,-31.78,-60.48,/WMO_Region_3_South_America/ARG_Argentina/Entre_R%C3%ADos/ARG_Entre.Rios_Parana.AP_873740_ArgTMY.zip,onebuilding,2,377,1816,5802,281,388,94
871620,ARG,Formosa_Intl_AP,TMY,-26.2,-58.23,/WMO_Region_3_South_America/ARG_Argentina/Formosa/ARG_Formosa_Formosa.Intl.AP_871620_ArgTMY.zip,onebuilding,0,111,706,5506,799,1056,582
871780,ARG,Posadas,TMY,-27.37,-55.97,/WMO_Region_3_South_America/ARG_Argentina/Misiones/ARG_Misiones_Posadas-San.Martin.Intl.AP_871780_ArgTMY.zip,onebuilding,0,43,528,6011,774,980,424
870970,ARG,Puerto_Iguazu_Intl_AP,TMY,-25.73,-54.47,/WMO_Region_3_South_America/ARG_Argentina/Misiones/ARG_Misiones_Puerto.Iguazu.Intl.AP_870970_ArgTMY.zip,onebuilding,4,146,654,6234,629,858,235
872570,ARG,Ceres,TMY,-29.88,-61.95,/WMO_Region_3_South_America/ARG_Argentina/Santa_Fe/ARG_Santa.Fe_Ceres_872570_ArgTMY.zip,onebuilding,16,621,1398,5533,337,517,338
874800,ARG,Rosario_Intl_AP,TMY,-32.92,-60.78,/WMO_Region_3_South_America/ARG_Argentina/Santa_Fe/ARG_Santa.Fe_Rosario.Intl.AP_874800_ArgTMY.zip,onebuilding,28,548,1785,5646,287,348,118
873710,ARG,Sauce_Viejo_AP,TMY,-31.7,-60.82,/WMO_Region_3_South_America/ARG_Argentina/Santa_Fe/ARG_Santa.Fe_Sauce.Viejo.AP_873710_ArgTMY.zip,onebuilding,33,770,1814,5227,391,363,162
872700,ARG,Reconquista_AP,TMY,-29.18,-59.7,/WMO_Region_3_South_America/ARG_Argentina/Santa_Fe/ARG_Santa.Fe_Reconquista.AP_872700_ArgTMY.zip,onebuilding,0,165,1362,5804,560,665,204
819240,BRA,Feij_AP,INMET,-8.14,-70.34,/WMO_Region_3_South_America/BRA_Brazil/AC_Acre/BRA_AC_Feijo.AP.819240_INMET.zip,onebuilding,0,0,3,2165,2665,2923,1004
819210,BRA,Porto_Walter,INMET,-8.27,-72.74,/WMO_Region_3_South_America/BRA_Brazil/AC_Acre/BRA_AC_Porto.Walter.819210_INMET.zip,onebuilding,0,0,3,1837,2612,3305,1003
829150,BRA,Rio_Branco,INMET,-9.96,-68.17,/WMO_Region_3_South_America/BRA_Brazil/AC_Acre/BRA_AC_Rio.Branco.829150_INMET.zip,onebuilding,0,1,25,4439,1577,1758,960
819630,BRA,Parque_Estadual_Chandless,INMET,-9.37,-69.93,/WMO_Region_3_South_America/BRA_Brazil/AC_Acre/BRA_AC_Parque.Chandless.819630_INMET.zip,onebuilding,0,0,0,3391,2250,2060,1059
819960,BRA,Arapiraca_AP,INMET,-9.8,-36.62,/WMO_Region_3_South_America/BRA_Brazil/AL_Alagoas/BRA_AL_Arapiraca.AP.819960_INMET.zip,onebuilding,0,0,0,6666,1087,913,94
829940,BRA,Macei,INMET,-9.67,-35.74,/WMO_Region_3_South_America/BRA_Brazil/AL_Alagoas/BRA_AL_Maceio.829940_INMET.zip,onebuilding,0,0,0,5165,2595,989,11
819940,BRA,Po_de_Acar,INMET,-9.75,-37.44,/WMO_Region_3_South_America/BRA_Brazil/AL_Alagoas/BRA_AL_Pao.de.Acucar.819940_INMET.zip,onebuilding,0,0,0,2580,2800,2211,1169
866190,BRA,Coruripe,INMET,-10.13,-36.29,/WMO_Region_3_South_America/BRA_Brazil/AL_Alagoas/BRA_AL_Coruripe.866190_INMET.zip,onebuilding,0,0,0,3879,3043,1786,52
829920,BRA,Palmeira_dos_ndios,INMET,-9.41,-36.63,/WMO_Region_3_South_America/BRA_Brazil/AL_Alagoas/BRA_AL_Palmeira.dos.Indios.829920_INMET.zip,onebuilding,0,0,0,6338,1083,1116,223
819970,BRA,So_Lus_do_Quitunde,INMET,-9.29,-35.57,/WMO_Region_3_South_America/BRA_Brazil/AL_Alagoas/BRA_AL_Sao.Luis.do.Quitunde.819970_INMET.zip,onebuilding,0,0,0,3294,2933,2437,96
829930,BRA,Macei-Palmares_Intl_AP,TRY,-9.52,-35.78,/WMO_Region_3_South_America/BRA_Brazil/AL_Alagoas/BRA_AL_Maceio-Palmares.Intl.AP.829930_TRY.1962.zip,onebuilding,0,0,0,6401,1717,629,13
817320,BRA,Autazes,INMET,-3.58,-59.13,/WMO_Region_3_South_America/BRA_Brazil/AM_Amazonas/BRA_AM_Autazes.817320_INMET.zip,onebuilding,0,0,0,755,2917,3770,1318
817330,BRA,Itacoatiara_AP,INMET,-3.13,-58.48,/WMO_Region_3_South_America/BRA_Brazil/AM_Amazonas/BRA_AM_Itacoatiara.AP.817330_INMET.zip,onebuilding,0,0,0,646,2917,4331,866
817340,BRA,Maus,INMET,-3.4,-57.67,/WMO_Region_3_South_America/BRA_Brazil/AM_Amazonas/BRA_AM_Maues.817340_INMET.zip,onebuilding,0,0,0,709,3303,2929,1819
816480,BRA,Barcelos_AP,INMET,-0.99,-62.92,/WMO_Region_3_South_America/BRA_Brazil/AM_Amazonas/BRA_AM_Barcelos.AP.816480_INMET.zip,onebuilding,0,0,0,1237,3184,3040,1299
817290,BRA,Manacapuru,INMET,-3.29,-60.63,/WMO_Region_3_South_America/BRA_Brazil/AM_Amazonas/BRA_AM_Manacapuru.817290_INMET.zip,onebuilding,0,0,0,1008,3061,4071,620
817030,BRA,Parintins,INMET,-2.64,-56.76,/WMO_Region_3_South_America/BRA_Brazil/AM_Amazonas/BRA_AM_Parintins.817030_INMET.zip,onebuilding,0,0,0,284,1700,5572,1204
817700,BRA,Coari,INMET,-4.1,-63.15,/WMO_Region_3_South_America/BRA_Brazil/AM_Amazonas/BRA_AM_Coari.817700_INMET.zip,onebuilding,0,0,0,1355,3131,3517,757
823320,BRA,Manaus-Gomes_Intl_AP,TRY,-3.15,-59.98,/WMO_Region_3_South_America/BRA_Brazil/AM_Amazonas/BRA_AM_Manaus-Gomes.Intl.AP.823320_TRY.1994.zip,onebuilding,0,0,0,1536,3222,2140,1862
816990,BRA,Presidente_Figueiredo,INMET,-2.06,-60.03,/WMO_Region_3_South_America/BRA_Brazil/AM_Amazonas/BRA_AM_Presidente.Figueiredo.816990_INMET.zip,onebuilding,0,0,0,933,3174,3264,1389
818900,BRA,Humait_AP,INMET,-7.55,-63.07,/WMO_Region_3_South_America/BRA_Brazil/AM_Amazonas/BRA_AM_Humaita.AP.818900_INMET.zip,onebuilding,0,0,0,1951,2966,2639,1204
817300,BRA,Manaus-Gomez_Intl_AP,INMET,-3.1,-60.03,/WMO_Region_3_South_America/BRA_Brazil/AM_Amazonas/BRA_AM_Manaus-Gomez.Intl.AP.817300_INMET.zip,onebuilding,0,0,0,460,1903,5423,974
817020,BRA,Urucar_AP,INMET,-2.53,-57.76,/WMO_Region_3_South_America/BRA_Brazil/AM_Amazonas/BRA_AM_Urucara.AP.817020_INMET.zip,onebuilding,0,0,0,449,2458,4100,1753
820980,BRA,Macap-Alcolumbre_Intl_AP,INMET,0.04,-51.07,/WMO_Region_3_South_America/BRA_Brazil/AP_Amap%C3%A1/BRA_AP_Macapa-Alcolumbre.Intl.AP.820980_INMET.zip,onebuilding,0,0,0,2928,2690,1961,1181
816370,BRA,Porto_Grande,INMET,0.7,-51.41,/WMO_Region_3_South_America/BRA_Brazil/AP_Amap%C3%A1/BRA_AP_Porto.Grande.816370_INMET.zip,onebuilding,0,0,0,2928,2690,1961,1181
816280,BRA,Tartarugalzinho,INMET,1.5,-50.92,/WMO_Region_3_South_America/BRA_Brazil/AP_Amap%C3%A1/BRA_AP_Tartarugalzinho.816280_INMET.zip,onebuilding,0,0,0,2505,3251,2805,199
816090,BRA,Oiapoque,INMET,3.81,-51.86,/WMO_Region_3_South_America/BRA_Brazil/AP_Amap%C3%A1/BRA_AP_Oiapoque.816090_INMET.zip,onebuilding,0,0,0,2558,2780,2659,763
866750,BRA,Amargosa_AP,INMET,-13.01,-39.62,/WMO_Region_3_South_America/BRA_Brazil/BA_Bahia/BRA_BA_Amargosa.AP.866750_INMET.zip,onebuilding,0,0,0,7661,655,424,20
866940,BRA,Guanambi_AP,INMET,-14.21,-42.75,/WMO_Region_3_South_America/BRA_Brazil/BA_Bahia/BRA_BA_Guanambi.AP.866940_INMET.zip,onebuilding,0,0,2,6269,1107,1129,253
866730,BRA,Piat,INMET,-13.16,-41.77,/WMO_Region_3_South_America/BRA_Brazil/BA_Bahia/BRA_BA_Piata.866730_INMET.zip,onebuilding,0,0,188,8501,64,7,0
866340,BRA,Barra_AP,INMET,-11.08,-43.14,/WMO_Region_3_South_America/BRA_Brazil/BA_Bahia/BRA_BA_Barra.AP.866340_INMET.zip,onebuilding,0,0,0,3963,1706,2320,771
866530,BRA,Ibotirama,INMET,-12.19,-43.21,/WMO_Region_3_South_America/BRA_Brazil/BA_Bahia/BRA_BA_Ibotirama.866530_INMET.zip,onebuilding,0,0,0,4576,1416,1976,792
867450,BRA,Porto_Seguro,INMET,-16.39,-39.18,/WMO_Region_3_South_America/BRA_Brazil/BA_Bahia/BRA_BA_Porto.Seguro.867450_INMET.zip,onebuilding,0,0,0,5305,2050,1334,71
866520,BRA,Barreiras,INMET,-12.15,-44.99,/WMO_Region_3_South_America/BRA_Brazil/BA_Bahia/BRA_BA_Barreiras.866520_INMET.zip,onebuilding,0,0,0,5377,1125,1791,467
866990,BRA,Ilhus,INMET,-14.79,-39.05,/WMO_Region_3_South_America/BRA_Brazil/BA_Bahia/BRA_BA_Ilheus.866990_INMET.zip,onebuilding,0,0,0,6324,1858,577,1
866120,BRA,Queimadas,INMET,-10.98,-39.62,/WMO_Region_3_South_America/BRA_Brazil/BA_Bahia/BRA_BA_Queimadas.866120_INMET.zip,onebuilding,0,0,0,5986,885,1366,523
867440,BRA,Belmonte,INMET,-16.09,-39.22,/WMO_Region_3_South_America/BRA_Brazil/BA_Bahia/BRA_BA_Belmonte.867440_INMET.zip,onebuilding,0,0,0,5612,1577,1494,77
866980,BRA,Ipia,INMET,-14.14,-39.73,/WMO_Region_3_South_America/BRA_Brazil/BA_Bahia/BRA_BA_Ipiau.866980_INMET.zip,onebuilding,0,0,0,4907,1994,1574,285
829790,BRA,Remanso,INMET,-9.62,-42.08,/WMO_Region_3_South_America/BRA_Brazil/BA_Bahia/BRA_BA_Remanso.829790_INMET.zip,onebuilding,0,0,0,4316,2103,2185,156
866720,BRA,Bom_Jesus_da_Lapa_AP,INMET,-13.26,-43.42,/WMO_Region_3_South_America/BRA_Brazil/BA_Bahia/BRA_BA_Bom.Jesus.da.Lapa.AP.866720_INMET.zip,onebuilding,0,0,0,4691,1388,2059,622
866350,BRA,Irec_AP,INMET,-11.33,-41.86,/WMO_Region_3_South_America/BRA_Brazil/BA_Bahia/BRA_BA_Irece.AP.866350_INMET.zip,onebuilding,0,0,0,6827,855,951,127
832480,BRA,Salvador-Magalhes_Intl_AP,TRY,-12.9,-38.33,/WMO_Region_3_South_America/BRA_Brazil/BA_Bahia/BRA_BA_Salvador-Magalhaes.Intl.AP.832480_TRY.1961.zip,onebuilding,0,0,0,6437,1581,734,8
866960,BRA,Brumado,INMET,-14.18,-41.67,/WMO_Region_3_South_America/BRA_Brazil/BA_Bahia/BRA_BA_Brumado.866960_INMET.zip,onebuilding,0,0,0,4940,1596,1936,288
866090,BRA,Buritirama_AP,INMET,-10.72,-43.65,/WMO_Region_3_South_America/BRA_Brazil/BA_Bahia/BRA_BA_Buritirama.AP.866090_INMET.zip,onebuilding,0,0,0,5543,1170,1558,489
867230,BRA,Itapetinga,INMET,-15.24,-40.24,/WMO_Region_3_South_America/BRA_Brazil/BA_Bahia/BRA_BA_Itapetinga.867230_INMET.zip,onebuilding,0,0,0,5959,1270,1269,262
866330,BRA,Santa_Rita_de_Cssia,INMET,-11.01,-44.52,/WMO_Region_3_South_America/BRA_Brazil/BA_Bahia/BRA_BA_Santa.Rita.de.Cassia.866330_INMET.zip,onebuilding,0,0,0,4554,1369,2017,820
834970,BRA,Caravelas,INMET,-17.73,-39.2,/WMO_Region_3_South_America/BRA_Brazil/BA_Bahia/BRA_BA_Caravelas.834970_INMET.zip,onebuilding,0,0,0,5207,2243,1298,12
866740,BRA,Itiruu,INMET,-13.53,-40.15,/WMO_Region_3_South_America/BRA_Brazil/BA_Bahia/BRA_BA_Itirucu.866740_INMET.zip,onebuilding,0,0,25,8173,415,144,3
830880,BRA,Senhor_do_Bonfim,INMET,-10.44,-40.15,/WMO_Region_3_South_America/BRA_Brazil/BA_Bahia/BRA_BA_Senhor.do.Bonfim.830880_INMET.zip,onebuilding,0,0,0,7108,890,722,40
866390,BRA,Conde,INMET,-11.81,-37.62,/WMO_Region_3_South_America/BRA_Brazil/BA_Bahia/BRA_BA_Conde.866390_INMET.zip,onebuilding,0,0,0,3642,3349,1763,6
866360,BRA,Jacobina,INMET,-11.21,-40.47,/WMO_Region_3_South_America/BRA_Brazil/BA_Bahia/BRA_BA_Jacobina.866360_INMET.zip,onebuilding,0,0,0,6474,1001,1137,148
866370,BRA,Serrinha,INMET,-11.66,-39.02,/WMO_Region_3_South_America/BRA_Brazil/BA_Bahia/BRA_BA_Serrinha.866370_INMET.zip,onebuilding,0,0,0,6999,638,930,193
866710,BRA,Correntina,INMET,-13.33,-44.62,/WMO_Region_3_South_America/BRA_Brazil/BA_Bahia/BRA_BA_Correntina.866710_INMET.zip,onebuilding,0,0,20,5819,1093,1520,308
866540,BRA,Lenis,INMET,-12.56,-41.39,/WMO_Region_3_South_America/BRA_Brazil/BA_Bahia/BRA_BA_Lencois.866540_INMET.zip,onebuilding,0,0,0,5281,1709,1510,260
819920,BRA,Uau,INMET,-9.83,-39.5,/WMO_Region_3_South_America/BRA_Brazil/BA_Bahia/BRA_BA_Uaua.819920_INMET.zip,onebuilding,0,0,0,6445,898,1214,203
866570,BRA,Cruz_das_Almas,INMET,-12.67,-39.1,/WMO_Region_3_South_America/BRA_Brazil/BA_Bahia/BRA_BA_Cruz.das.Almas.866570_INMET.zip,onebuilding,0,0,0,7152,974,623,11
866550,BRA,Macajuba,INMET,-12.14,-40.36,/WMO_Region_3_South_America/BRA_Brazil/BA_Bahia/BRA_BA_Macajuba.866550_INMET.zip,onebuilding,0,0,0,6935,899,875,51
867240,BRA,Un,INMET,-15.28,-39.09,/WMO_Region_3_South_America/BRA_Brazil/BA_Bahia/BRA_BA_Una.867240_INMET.zip,onebuilding,0,0,0,4720,2359,1654,27
866100,BRA,Delfino,INMET,-10.46,-41.21,/WMO_Region_3_South_America/BRA_Brazil/BA_Bahia/BRA_BA_Delfino.866100_INMET.zip,onebuilding,0,0,0,7132,817,754,57
866770,BRA,Mara,INMET,-13.91,-38.97,/WMO_Region_3_South_America/BRA_Brazil/BA_Bahia/BRA_BA_Marau.866770_INMET.zip,onebuilding,0,0,0,3678,2997,2077,8
866760,BRA,Valena,INMET,-13.37,-39.07,/WMO_Region_3_South_America/BRA_Brazil/BA_Bahia/BRA_BA_Valenca.866760_INMET.zip,onebuilding,0,0,0,5257,2107,1372,24
866130,BRA,Euclides_da_Cunha,INMET,-10.54,-39.0,/WMO_Region_3_South_America/BRA_Brazil/BA_Bahia/BRA_BA_Euclides.da.Cunha.866130_INMET.zip,onebuilding,0,1,0,7000,690,964,105
829860,BRA,Paulo_Afonso,INMET,-9.41,-38.22,/WMO_Region_3_South_America/BRA_Brazil/BA_Bahia/BRA_BA_Paulo.Afonso.829860_INMET.zip,onebuilding,0,0,0,6291,728,1292,449
866970,BRA,Vitria_da_Conquista-Figueiredo_AP,INMET,-14.87,-40.84,/WMO_Region_3_South_America/BRA_Brazil/BA_Bahia/BRA_BA_Vitoria.da.Conquista-Figueiredo.AP.866970_INMET.zip,onebuilding,0,0,47,8232,370,110,1
866580,BRA,Feira_de_Santana,INMET,-12.27,-38.97,/WMO_Region_3_South_America/BRA_Brazil/BA_Bahia/BRA_BA_Feira.de.Santana.866580_INMET.zip,onebuilding,0,0,0,6188,1222,1145,205
817550,BRA,Acara,INMET,-3.12,-40.09,/WMO_Region_3_South_America/BRA_Brazil/CE_Cear%C3%A1/BRA_CE_Acarau.817550_INMET.zip,onebuilding,0,0,0,3883,2414,2330,133
823980,BRA,Fortaleza-Pinto_Martins_Intl_AP,TRY,-3.78,-38.53,/WMO_Region_3_South_America/BRA_Brazil/CE_Cear%C3%A1/BRA_CE_Fortaleza-Pinto.Martins.Intl.AP.823980_TRY.1962.zip,onebuilding,0,0,0,2267,3287,3154,52
824930,BRA,Jaguaruana,INMET,-4.79,-37.78,/WMO_Region_3_South_America/BRA_Brazil/CE_Cear%C3%A1/BRA_CE_Jaguaruana.824930_INMET.zip,onebuilding,0,0,0,3489,2399,2439,433
819110,BRA,Barbalha,INMET,-7.3,-39.27,/WMO_Region_3_South_America/BRA_Brazil/CE_Cear%C3%A1/BRA_CE_Barbalha.819110_INMET.zip,onebuilding,0,0,0,4907,1739,1752,362
824870,BRA,Guaramiranga,INMET,-4.26,-38.93,/WMO_Region_3_South_America/BRA_Brazil/CE_Cear%C3%A1/BRA_CE_Guaramiranga.824870_INMET.zip,onebuilding,0,0,0,8728,32,0,0
825940,BRA,Morada_Nova,INMET,-5.11,-38.37,/WMO_Region_3_South_America/BRA_Brazil/CE_Cear%C3%A1/BRA_CE_Morada.Nova.825940_INMET.zip,onebuilding,0,0,0,2705,2679,2572,804
827770,BRA,Campos_Sales,INMET,-7.08,-40.36,/WMO_Region_3_South_America/BRA_Brazil/CE_Cear%C3%A1/BRA_CE_Campos.Sales.827770_INMET.zip,onebuilding,0,0,0,6265,1263,1123,109
